FID,cod_aldeia,nome_aldeia,cod_ti,cod_municipio,data_cadastro,flag_ativo,nome_cr,the_geom,nommunic,nomuf,undadm_codigo,coord_lat,coord_long
aldeias_pontos.fid-8091ffc_197eb49b98a_2ee7,1626,11 DE SETEMBRO,33801,5107065,19/04/2018,A,COORDENACAO REGIONAL DO XINGU,POINT (-53.2047777778 -11.3278444444),Querência,Mato Grosso,30202002060,-11.32784444,-53.20477778
aldeias_pontos.fid-8091ffc_197eb49b98a_2ee8,61,12 de Outubro,17301,5101902,,A,COORDENACAO REGIONAL NOROESTE DO MATO GROSSO,POINT (-57.933888888889 -12.801388888889),Brasnorte,Mato Grosso,30202002032,-12.80138889,-57.93388889
aldeias_pontos.fid-8091ffc_197eb49b98a_2ee9,60,13 de Maio,17301,5101902,,A,COORDENACAO REGIONAL NOROESTE DO MATO GROSSO,POINT (-57.901388888889 -12.800277777778),Brasnorte,Mato Grosso,30202002032,-12.80027778,-57.90138889
aldeias_pontos.fid-8091ffc_197eb49b98a_2eea,2346,14 de Abril (Central),40701,1100098,13/07/2018,A,COORDENACAO REGIONAL DE CACOAL,POINT (-60.6708888889 -11.3573888889),Espigão D´Oeste,Rondônia,30202001934,-11.35738889,-60.67088889
aldeias_pontos.fid-8091ffc_197eb49b98a_2eeb,3084,18 Praias,15701,1200609,05/09/2018,A,COORDENACAO REGIONAL DO JURUÁ,POINT (-70.7596055556 -8.23643611111),Tarauacá,Acre,30202001852,-8.23643611,-70.75960556
aldeias_pontos.fid-8091ffc_197eb49b98a_2eec,3237,21 (Vinte e Um),20501,1200302,13/09/2018,A,COORDENACAO REGIONAL DO JURUÁ,POINT (-71.5234611111 -9.66817222222),Feijó,Acre,30202001852,-9.66817222,-71.52346111
aldeias_pontos.fid-8091ffc_197eb49b98a_2eed,4844,3 Cachoeiras,7301,1200054,04/04/2022,A,COORDENACAO REGIONAL ALTO PURUS,POINT (-69.8894083333 -10.9207333333),Assis Brasil,Acre,30202001845,-10.92073333,-69.88940833
aldeias_pontos.fid-8091ffc_197eb49b98a_2eee,3337,7 de Setembro,56601,1200336,17/09/2018,A,COORDENACAO REGIONAL DO JURUÁ,POINT (-73.5028888889 -7.46280555556),Mâncio Lima,Acre,30202001852,-7.46280556,-73.50288889
aldeias_pontos.fid-8091ffc_197eb49b98a_2eef,3980,72 COATI ( EDIMILSON ),40701,1100098,14/10/2019,A,COORDENACAO REGIONAL DE CACOAL,POINT (-60.5794166667 -11.5053333333),Espigão D´Oeste,Rondônia,30202001934,-11.50533333,-60.57941667
aldeias_pontos.fid-8091ffc_197eb49b98a_2ef0,3886,8ª Linha,16101,1100106,15/04/2019,A,COORDENACAO REGIONAL DE GUAJARA MIRIM,POINT (-65.208 -10.6284166667),Guajará-Mirim,Rondônia,30202001941,-10.62841667,-65.208
aldeias_pontos.fid-8091ffc_197eb49b98a_2ef1,2167,9 DE JULHO,37901,1400407,07/06/2018,A,COORDENACAO REGIONAL DE RORAIMA,POINT (-60.1014277778 3.50921388889),Normandia,Roraima,30202001955,3.50921389,-60.10142778
aldeias_pontos.fid-8091ffc_197eb49b98a_2ef2,761,ABACAXI,2401,1721208,20/10/2016,A,COORDENACAO REGIONAL ARAGUAIA TOCANTINS,POINT (-47.5444444444 -6.33916666667),Tocantinópolis,Tocantins,30202001962,-6.33916667,-47.54444444
aldeias_pontos.fid-8091ffc_197eb49b98a_2ef3,3689,ABELHINHA,41101,5103908,30/10/2018,A,COORDENACAO REGIONAL XAVANTE,POINT (-53.8217666667 -15.5201416667),General Carneiro,Mato Grosso,30202002053,-15.52014167,-53.82176667
aldeias_pontos.fid-8091ffc_197eb49b98a_2ef4,4993,ABONARI PV,49501,1303536,21/07/2022,A,COORDENACAO REGIONAL DE MANAUS,POINT (-60.4067 -1.26123333333),Presidente Figueiredo,Amazonas,30202001871,-1.26123333,-60.4067
aldeias_pontos.fid-8091ffc_197eb49b98a_2ef5,1516,ABRÃO,3601,2100600,17/04/2018,A,COORDENACAO REGIONAL MARANHÃO,POINT (-46.3042333333 -5.21534166667),Amarante do Maranhão,Maranhão,30202001997,-5.21534167,-46.30423333
aldeias_pontos.fid-8091ffc_197eb49b98a_2ef6,3172,ACAMAPAMENTO PASSO PIRAJU,11101,5003702,11/09/2018,A,COORDENACAO REGIONAL DE DOURADOS,POINT (-54.6958333333 -22.4216666667),Dourados,Mato Grosso do Sul,30202002011,-22.42166667,-54.69583333
aldeias_pontos.fid-8091ffc_197eb49b98a_2ef7,3182,ACAMAPAMENTO TARUMÃ,18901,5005707,11/09/2018,I,COORDENACAO REGIONAL DE DOURADOS,POINT (-54.2458333333 -23.0483333333),Naviraí,Mato Grosso do Sul,30202002011,-23.04833333,-54.24583333
aldeias_pontos.fid-8091ffc_197eb49b98a_2ef8,3181,ACAMPAMENTO ALDEINHA,18901,5005152,11/09/2018,A,COORDENACAO REGIONAL DE DOURADOS,POINT (-54.3094444444 -22.7033333333),Juti,Mato Grosso do Sul,30202002011,-22.70333333,-54.30944444
aldeias_pontos.fid-8091ffc_197eb49b98a_2ef9,3177,ACAMPAMENTO AROEIRA,64801,5007208,11/09/2018,A,COORDENACAO REGIONAL DE DOURADOS,POINT (-54.4361111111 -21.6527777778),Rio Brilhante,Mato Grosso do Sul,30202002011,-21.65277778,-54.43611111
aldeias_pontos.fid-8091ffc_197eb49b98a_2efa,3166,ACAMPAMENTO BOQUEIRÃO,11101,5003702,11/09/2018,A,COORDENACAO REGIONAL DE DOURADOS,POINT (-54.8486111111 -22.2019444444),Dourados,Mato Grosso do Sul,30202002011,-22.20194444,-54.84861111
aldeias_pontos.fid-8091ffc_197eb49b98a_2efb,3163,ACAMPAMENTO CAPIVARI,9101,4313656,10/09/2018,A,COORDENACAO REGIONAL LITORAL SUL,POINT (-50.3557972222 -30.3593138889),Palmares do Sul,Rio Grande do Sul,30202002095,-30.35931389,-50.35579722
aldeias_pontos.fid-8091ffc_197eb49b98a_2efc,3489,ACAMPAMENTO CAPIVARI,9101,4313656,24/10/2018,A,COORDENACAO REGIONAL LITORAL SUL,POINT (-50.3557972222 -30.3593138889),Palmares do Sul,Rio Grande do Sul,30202002095,-30.35931389,-50.35579722
aldeias_pontos.fid-8091ffc_197eb49b98a_2efd,3169,ACAMPAMENTO CURRAL DE ARAME,11101,5003702,11/09/2018,A,COORDENACAO REGIONAL DE DOURADOS,POINT (-54.8633333333 -22.2558333333),Dourados,Mato Grosso do Sul,30202002011,-22.25583333,-54.86333333
aldeias_pontos.fid-8091ffc_197eb49b98a_2efe,3175,ACAMPAMENTO GUIRAKAMBY,64801,4107256,11/09/2018,A,COORDENACAO REGIONAL DE DOURADOS,POINT (-54.6247222222 -21.9833333333),Douradina,Paraná,30202002011,-21.98333333,-54.62472222
aldeias_pontos.fid-8091ffc_197eb49b98a_2eff,3171,ACAMPAMENTO ITAHUM,11101,5003702,11/09/2018,A,COORDENACAO REGIONAL DE DOURADOS,POINT (-55.3561111111 -22.0905555556),Dourados,Mato Grosso do Sul,30202002011,-22.09055556,-55.35611111
aldeias_pontos.fid-8091ffc_197eb49b98a_2f00,3174,ACAMPAMENTO ITAY KA AGUYRUSU,64801,5003504,11/09/2018,A,COORDENACAO REGIONAL DE DOURADOS,POINT (-54.6291666667 -21.9813888889),Douradina,Mato Grosso do Sul,30202002011,-21.98138889,-54.62916667
aldeias_pontos.fid-8091ffc_197eb49b98a_2f01,3183,ACAMPAMENTO JUNCAL,18901,5005707,11/09/2018,A,COORDENACAO REGIONAL DE DOURADOS,POINT (-54.2833333333 -22.9),Naviraí,Mato Grosso do Sul,30202002011,-22.9,-54.28333333
aldeias_pontos.fid-8091ffc_197eb49b98a_2f02,3180,ACAMPAMENTO LARANJAL,43401,5005004,11/09/2018,A,COORDENACAO REGIONAL DE DOURADOS,POINT (-56.1711111111 -21.5777777778),Jardim,Mato Grosso do Sul,30202002011,-21.57777778,-56.17111111
aldeias_pontos.fid-8091ffc_197eb49b98a_2f03,3176,ACAMPAMENTO LARANJEIRA NHANDERU,64801,5007208,11/09/2018,A,COORDENACAO REGIONAL DE DOURADOS,POINT (-54.5447222222 -21.89),Rio Brilhante,Mato Grosso do Sul,30202002011,-21.89,-54.54472222
aldeias_pontos.fid-8091ffc_197eb49b98a_2f04,3168,ACAMPAMENTO MUDAS,11101,5003702,11/09/2018,A,COORDENACAO REGIONAL DE DOURADOS,POINT (-54.7705555556 -22.2483333333),Dourados,Mato Grosso do Sul,30202002011,-22.24833333,-54.77055556
aldeias_pontos.fid-8091ffc_197eb49b98a_2f05,3167,ACAMPAMENTO NHU VERÁ,11101,5003702,11/09/2018,A,COORDENACAO REGIONAL DE DOURADOS,POINT (-54.8527777778 -22.2),Dourados,Mato Grosso do Sul,30202002011,-22.2,-54.85277778
aldeias_pontos.fid-8091ffc_197eb49b98a_2f06,3170,ACAMPAMENTO PAKURITY,11101,5003702,11/09/2018,A,COORDENACAO REGIONAL DE DOURADOS,POINT (-54.9711111111 -22.2483333333),Dourados,Mato Grosso do Sul,30202002011,-22.24833333,-54.97111111
aldeias_pontos.fid-8091ffc_197eb49b98a_2f07,3173,ACAMPAMENTO PICADINHA,11101,5003702,11/09/2018,A,COORDENACAO REGIONAL DE DOURADOS,POINT (-54.9652777778 -22.1725),Dourados,Mato Grosso do Sul,30202002011,-22.1725,-54.96527778
aldeias_pontos.fid-8091ffc_197eb49b98a_2f08,3187,ACAMPAMENTO POTRERITO,35901,5006358,11/09/2018,A,COORDENACAO REGIONAL DE PONTA PORA,POINT (-55.2666666667 -23.9333333333),Paranhos,Mato Grosso do Sul,30202002018,-23.93333333,-55.26666667
aldeias_pontos.fid-8091ffc_197eb49b98a_2f09,3178,ACAMPAMENTO WILSON OU SETE PLACAS,64801,5007208,11/09/2018,A,COORDENACAO REGIONAL DE DOURADOS,POINT (-54.8638888889 -21.5861111111),Rio Brilhante,Mato Grosso do Sul,30202002011,-21.58611111,-54.86388889
aldeias_pontos.fid-8091ffc_197eb49b98a_2f0a,3789,ACAPURI DE CIMA,101,1301605,01/04/2019,A,COORDENACAO REGIONAL DO ALTO SOLIMOES,POINT (-66.816902777778 -2.6722361111111),Fonte Boa,Amazonas,30202001857,-2.67223611,-66.81690278
aldeias_pontos.fid-8091ffc_197eb49b98a_2f0b,3804,ACAPURI DO MEIO,101,1301605,01/04/2019,A,COORDENACAO REGIONAL DO ALTO SOLIMOES,POINT (-66.808841666667 -2.6813638888889),Fonte Boa,Amazonas,30202001857,-2.68136389,-66.80884167
aldeias_pontos.fid-8091ffc_197eb49b98a_2f0c,3054,ACAUÃ,13101,2600500,04/09/2018,A,COORDENACAO REGIONAL BAIXO SÃO FRANCISCO,POINT (-37.1229194444 -9.11859166667),Águas Belas,Pernambuco,30202001983,-9.11859167,-37.12291944
aldeias_pontos.fid-8091ffc_197eb49b98a_2f0d,3162,ACAUÃ,46601,2603009,10/09/2018,A,COORDENACAO REGIONAL BAIXO SÃO FRANCISCO,POINT (-39.4254222222 -8.51738611111),Cabrobó,Pernambuco,30202001983,-8.51738611,-39.42542222
aldeias_pontos.fid-8091ffc_197eb49b98a_2f0e,2992,ACONÃ,601,2709202,03/09/2018,A,COORDENACAO REGIONAL NORDESTE I,POINT (-36.9433833333 -10.0702166667),Traipu,Alagoas,30202001969,-10.07021667,-36.94338333
aldeias_pontos.fid-8091ffc_197eb49b98a_2f0f,1425,ACURI,33401,5107958,12/04/2018,A,COORDENACAO REGIONAL DE CUIABA,POINT (-58.5555555556 -14.3466666667),Tangará da Serra,Mato Grosso,30202002025,-14.34666667,-58.55555556
aldeias_pontos.fid-8091ffc_197eb49b98a_2f10,3028,AFETOS,50801,2610905,04/09/2018,A,COORDENACAO REGIONAL NORDESTE I,POINT (-36.7060194444 -8.32255277778),Pesqueira,Pernambuco,30202001969,-8.32255278,-36.70601944
aldeias_pontos.fid-8091ffc_197eb49b98a_2f11,1416,AFRICA,33401,5107958,12/04/2018,A,COORDENACAO REGIONAL DE CUIABA,POINT (-58.282675 -14.3621916667),Tangará da Serra,Mato Grosso,30202002025,-14.36219167,-58.282675
aldeias_pontos.fid-8091ffc_197eb49b98a_2f12,1611,AFUKURI,33801,5107065,18/04/2018,A,COORDENACAO REGIONAL DO XINGU,POINT (-53.0041388889 -12.5170027778),Querência,Mato Grosso,30202002060,-12.51700278,-53.00413889
aldeias_pontos.fid-8091ffc_197eb49b98a_2f13,4001,AGAMENON (GERALDO),33601,1100189,04/11/2019,A,COORDENACAO REGIONAL NOROESTE DO MATO GROSSO,POINT (-60.4119722222 -11.6165833333),Pimenta Bueno,Rondônia,30202002032,-11.61658333,-60.41197222
aldeias_pontos.fid-8091ffc_197eb49b98a_2f14,2290,AGATHA,33801,5103858,09/07/2018,A,COORDENACAO REGIONAL DO XINGU,POINT (-52.9136916667 -12.7656611111),Gaúcha do Norte,Mato Grosso,30202002060,-12.76566111,-52.91369167
aldeias_pontos.fid-8091ffc_197eb49b98a_2f15,3437,AGRESTE,32401,2614808,11/10/2018,A,COORDENACAO REGIONAL BAIXO SÃO FRANCISCO,POINT (-38.1760777778 -9.12955833333),Tacaratu,Pernambuco,30202001983,-9.12955833,-38.17607778
aldeias_pontos.fid-8091ffc_197eb49b98a_2f16,1557,AGUA BRANCA,3601,2100956,17/04/2018,A,COORDENACAO REGIONAL MARANHÃO,POINT (-46.2066527778 -5.32752777778),Arame,Maranhão,30202001997,-5.32752778,-46.20665278
aldeias_pontos.fid-8091ffc_197eb49b98a_2f17,2979,AGUA BRANCA,2601,4113700,03/09/2018,A,COORDENACAO REGIONAL INTERIOR DO SUL,POINT (-50.9589583333 -23.7880944444),Londrina,Paraná,30202002088,-23.78809444,-50.95895833
aldeias_pontos.fid-8091ffc_197eb49b98a_2f18,2976,AGUA BRANCA,44401,5001102,31/08/2018,A,COORDENACAO REGIONAL DE CAMPO GRANDE,POINT (-56.0441694444 -20.2728472222),Aquidauana,Mato Grosso do Sul,30202002004,-20.27284722,-56.04416944
aldeias_pontos.fid-8091ffc_197eb49b98a_2f19,2966,AGUA BRANCA,30601,5001102,31/08/2018,A,COORDENACAO REGIONAL DE CAMPO GRANDE,POINT (-55.7581222222 -21.1476361111),Aquidauana,Mato Grosso do Sul,30202002004,-21.14763611,-55.75812222
aldeias_pontos.fid-8091ffc_197eb49b98a_2f1a,2258,AGUA FRIA,37901,1400704,28/06/2018,A,COORDENACAO REGIONAL DE RORAIMA,POINT (-60.4949805556 4.64508055556),Uiramutã,Roraima,30202001955,4.64508056,-60.49498056
aldeias_pontos.fid-8091ffc_197eb49b98a_2f1b,2537,AGUA FRIA,24201,1300631,24/07/2018,A,COORDENACAO REGIONAL DE MANAUS,POINT (-61.8784194444 -4.41252777778),Beruri,Amazonas,30202001871,-4.41252778,-61.87841944
aldeias_pontos.fid-8091ffc_197eb49b98a_2f1c,2736,AGUA LIMPA,12101,3552700,27/07/2018,A,COORDENACAO REGIONAL DO ALTO SOLIMOES,POINT (-69.5407555556 -4.13423055556),Tabatinga,São Paulo,30202001857,-4.13423056,-69.54075556
aldeias_pontos.fid-8091ffc_197eb49b98a_2f1d,1576,AIHA /KALAPALO,33801,5103858,18/04/2018,A,COORDENACAO REGIONAL DO XINGU,POINT (-53.2555416667 -12.1619638889),Gaúcha do Norte,Mato Grosso,30202002060,-12.16196389,-53.25554167
aldeias_pontos.fid-8091ffc_197eb49b98a_2f1e,1618,AIPORE,33801,5105580,18/04/2018,A,COORDENACAO REGIONAL DO XINGU,POINT (-53.4218083333 -11.0447833333),Marcelândia,Mato Grosso,30202002060,-11.04478333,-53.42180833
aldeias_pontos.fid-8091ffc_197eb49b98a_2f1f,2172,AIRASOL,37901,1400407,07/06/2018,A,COORDENACAO REGIONAL DE RORAIMA,POINT (-60.2871 3.68669166667),Normandia,Roraima,30202001955,3.68669167,-60.2871
aldeias_pontos.fid-8091ffc_197eb49b98a_2f20,2360,AJARANI I,50901,1400282,17/07/2018,A,COORDENACAO REGIONAL DE RORAIMA,POINT (-62.0198416667 1.88836111111),Iracema,Roraima,30202001955,1.88836111,-62.01984167
aldeias_pontos.fid-8091ffc_197eb49b98a_2f21,2366,AJARANI II,50901,1400209,17/07/2018,A,COORDENACAO REGIONAL DE RORAIMA,POINT (-61.9823694444 1.90199722222),Caracaraí,Roraima,30202001955,1.90199722,-61.98236944
aldeias_pontos.fid-8091ffc_197eb49b98a_2f22,2249,AJURICABA,50901,1300409,25/06/2018,A,COORDENACAO REGIONAL DE RORAIMA,POINT (-62.6416666667 0.891666666667),Barcelos,Amazonas,30202001955,0.89166667,-62.64166667
aldeias_pontos.fid-8091ffc_197eb49b98a_2f23,2930,AKAJUTIBIRÓ,36901,2501401,20/08/2018,A,COORDENACAO REGIONAL DE JOAO PESSOA,POINT (-34.9352027778 -6.70973055556),Baía da Traição,Paraíba,30202002287,-6.70973056,-34.93520278
aldeias_pontos.fid-8091ffc_197eb49b98a_2f24,2025,AKAN  (AGAN),58401,1400100,29/05/2018,A,COORDENACAO REGIONAL DE RORAIMA,POINT (-60.4524722222 3.33100555556),Boa Vista,Roraima,30202001955,3.33100556,-60.45247222
aldeias_pontos.fid-8091ffc_197eb49b98a_2f25,1350,AKONTEK,29801,1503754,11/04/2018,A,COORDENACAO REGIONAL DE TAPAJOS,POINT (-57.4486666667 -6.4995),Jacareacanga,Pará,30202001927,-6.4995,-57.44866667
aldeias_pontos.fid-8091ffc_197eb49b98a_2f26,5004,ALALAU (AL),49501,1303205,21/07/2022,A,COORDENACAO REGIONAL DE MANAUS,POINT (-61.1428111111 -0.500472222222),Novo Airão,Amazonas,30202001871,-0.50047222,-61.14281111
aldeias_pontos.fid-8091ffc_197eb49b98a_2f27,1716,ALANTESU,48601,5103304,30/04/2018,A,COORDENACAO REGIONAL DE CUIABA,POINT (-59.8383888889 -14.1707777778),Comodoro,Mato Grosso,30202002025,-14.17077778,-59.83838889
aldeias_pontos.fid-8091ffc_197eb49b98a_2f28,2945,ALDEIA BAIXA DA CANGALHA,23101,2902658,21/08/2018,A,COORDENACAO REGIONAL BAIXO SÃO FRANCISCO,POINT (-38.6658611111 -10.6749166667),Banzaê,Bahia,30202001983,-10.67491667,-38.66586111
aldeias_pontos.fid-8091ffc_197eb49b98a_2f29,4002,ALDEIA CURRAL (VICENTE),33601,1100189,04/11/2019,A,COORDENACAO REGIONAL NOROESTE DO MATO GROSSO,POINT (-60.1893888889 -11.6709722222),Pimenta Bueno,Rondônia,30202002032,-11.67097222,-60.18938889
aldeias_pontos.fid-8091ffc_197eb49b98a_2f2a,3985,ALDEIA DO MANOEL,40701,1100098,15/10/2019,A,COORDENACAO REGIONAL DE CACOAL,POINT (-60.7593333333 -11.0861388889),Espigão D´Oeste,Rondônia,30202001934,-11.08613889,-60.75933333
aldeias_pontos.fid-8091ffc_197eb49b98a_2f2b,1647,ALDEIA ETEWAWE,26901,5100359,23/04/2018,A,COORDENACAO REGIONAL RIBEIRAO CASCALHEIRA,POINT (-51.5322777778 -11.7509722222),Alto Boa Vista,Mato Grosso,30202002046,-11.75097222,-51.53227778
aldeias_pontos.fid-8091ffc_197eb49b98a_2f2c,2941,ALDEIA MORRINHOS,15401,2913200,21/08/2018,A,COORDENACAO REGIONAL BAIXO SÃO FRANCISCO,POINT (-43.2545638889 -12.0854361111),Ibotirama,Bahia,30202001983,-12.08543611,-43.25456389
aldeias_pontos.fid-8091ffc_197eb49b98a_2f2d,2243,ALDEIA NOVA,45103,1304104,25/06/2018,A,COORDENACAO REGIONAL DE MANAUS,POINT (-62.8271472222 -4.78378055556),Tapauá,Amazonas,30202001871,-4.78378056,-62.82714722
aldeias_pontos.fid-8091ffc_197eb49b98a_2f2e,2330,ALDEIA PAITER - LINHA 09,43001,1100049,12/07/2018,A,COORDENACAO REGIONAL DE CACOAL,POINT (-61.3622833333 -11.1050444444),Cacoal,Rondônia,30202001934,-11.10504444,-61.36228333
aldeias_pontos.fid-8091ffc_197eb49b98a_2f2f,829,ALDEINHA,50301,1721109,31/10/2016,A,COORDENACAO REGIONAL ARAGUAIA TOCANTINS,POINT (-48.0486111111 -9.71),Tocantínia,Tocantins,30202001962,-9.71,-48.04861111
aldeias_pontos.fid-8091ffc_197eb49b98a_2f30,757,ALDEINHA,2401,1721208,20/10/2016,A,COORDENACAO REGIONAL ARAGUAIA TOCANTINS,POINT (-47.5486111111 -6.33277777778),Tocantinópolis,Tocantins,30202001962,-6.33277778,-47.54861111
aldeias_pontos.fid-8091ffc_197eb49b98a_2f31,3642,ALDEONA,32701,5102603,29/10/2018,A,COORDENACAO REGIONAL XAVANTE,POINT (-53.3961138889 -14.4486),Campinápolis,Mato Grosso,30202002053,-14.4486,-53.39611389
aldeias_pontos.fid-8091ffc_197eb49b98a_2f32,2370,ALEGRIA,5101,5101605,19/07/2018,A,COORDENACAO REGIONAL DE CUIABA,POINT (-56.582775 -17.0568361111),Barão de Melgaço,Mato Grosso,30202002025,-17.05683611,-56.582775
aldeias_pontos.fid-8091ffc_197eb49b98a_2f33,3150,ALEGRIA,46601,2603009,10/09/2018,A,COORDENACAO REGIONAL BAIXO SÃO FRANCISCO,POINT (-39.4328861111 -8.53633333333),Cabrobó,Pernambuco,30202001983,-8.53633333,-39.43288611
aldeias_pontos.fid-8091ffc_197eb49b98a_2f34,409,ALEGRIA,48701,1300201,,A,COORDENACAO REGIONAL DO VALE DO JAVARI,POINT (-72.1247777778 -6.80438888889),Atalaia do Norte,Amazonas,30202001892,-6.80438889,-72.12477778
aldeias_pontos.fid-8091ffc_197eb49b98a_2f35,2205,ALEGRIA,3901,5106174,08/06/2018,A,COORDENACAO REGIONAL RIBEIRAO CASCALHEIRA,POINT (-52.2054444444 -14.4097777778),Nova Nazaré,Mato Grosso,30202002046,-14.40977778,-52.20544444
aldeias_pontos.fid-8091ffc_197eb49b98a_2f36,2269,ALELUIA,37901,1400456,03/07/2018,A,COORDENACAO REGIONAL DE RORAIMA,POINT (-60.8758472222 4.22522777778),Pacaraima,Roraima,30202001955,4.22522778,-60.87584722
aldeias_pontos.fid-8091ffc_197eb49b98a_2f37,2264,ALIANÇA I,37901,1400704,02/07/2018,A,COORDENACAO REGIONAL DE RORAIMA,POINT (-60.3361666667 4.21463611111),Uiramutã,Roraima,30202001955,4.21463611,-60.33616667
aldeias_pontos.fid-8091ffc_197eb49b98a_2f38,3529,ALTAMIRA,8701,2101608,24/10/2018,A,COORDENACAO REGIONAL MARANHÃO,POINT (-45.5551583333 -5.71401388889),Barra do Corda,Maranhão,30202001997,-5.71401389,-45.55515833
aldeias_pontos.fid-8091ffc_197eb49b98a_2f39,2630,ALTO ARRAIA,26501,1400159,26/07/2018,A,COORDENACAO REGIONAL DE RORAIMA,POINT (-60.209025 2.85429166667),Bonfim,Roraima,30202001955,2.85429167,-60.209025
aldeias_pontos.fid-8091ffc_197eb49b98a_2f3a,2367,ALTO CATRIMANI,50901,1400282,17/07/2018,A,COORDENACAO REGIONAL DE RORAIMA,POINT (-63.0048805556 2.37543611111),Iracema,Roraima,30202001955,2.37543611,-63.00488056
aldeias_pontos.fid-8091ffc_197eb49b98a_2f3b,2902,ALTO DA SERRA,4501,2603926,06/08/2018,A,COORDENACAO REGIONAL BAIXO SÃO FRANCISCO,POINT (-38.7760416667 -8.30011944444),Carnaubeira da Penha,Pernambuco,30202001983,-8.30011944,-38.77604167
aldeias_pontos.fid-8091ffc_197eb49b98a_2f3c,3652,ALTO DA VITORIA,32701,5102603,29/10/2018,A,COORDENACAO REGIONAL XAVANTE,POINT (-53.3964694444 -14.297675),Campinápolis,Mato Grosso,30202002053,-14.297675,-53.39646944
aldeias_pontos.fid-8091ffc_197eb49b98a_2f3d,1088,ALTO MUCAJAI,50901,1400050,14/03/2017,A,COORDENACAO REGIONAL DE RORAIMA,POINT (-62.220193954 2.766035613),Alto Alegre,Roraima,30202001955,2.76603561,-62.22019395
aldeias_pontos.fid-8091ffc_197eb49b98a_2f3e,2959,ALVES DE BARRO,20001,5006903,31/08/2018,A,COORDENACAO REGIONAL DE CAMPO GRANDE,POINT (-56.9601888889 -20.4331611111),Porto Murtinho,Mato Grosso do Sul,30202002004,-20.43316111,-56.96018889
aldeias_pontos.fid-8091ffc_197eb49b98a_2f3f,3646,ALVORADA,32701,5102603,29/10/2018,A,COORDENACAO REGIONAL XAVANTE,POINT (-53.4300972222 -14.4453777778),Campinápolis,Mato Grosso,30202002053,-14.44537778,-53.43009722
aldeias_pontos.fid-8091ffc_197eb49b98a_2f40,3071,AMAMBAÍ,1601,5000609,05/09/2018,A,COORDENACAO REGIONAL DE PONTA PORA,POINT (-55.2101444444 -23.0624083333),Amambai,Mato Grosso do Sul,30202002018,-23.06240833,-55.21014444
aldeias_pontos.fid-8091ffc_197eb49b98a_2f41,2333,AMARAL,43001,1100049,12/07/2018,A,COORDENACAO REGIONAL DE CACOAL,POINT (-61.2999972222 -11.1954166667),Cacoal,Rondônia,30202001934,-11.19541667,-61.29999722
aldeias_pontos.fid-8091ffc_197eb49b98a_2f42,3043,AMARO,50701,2706307,04/09/2018,A,COORDENACAO REGIONAL NORDESTE I,POINT (-36.6556 -9.36889166667),Palmeira dos Índios,Alagoas,30202001969,-9.36889167,-36.6556
aldeias_pontos.fid-8091ffc_197eb49b98a_2f43,2674,AMATURAZINHO,6201,1303700,26/07/2018,A,COORDENACAO REGIONAL DO ALTO SOLIMOES,POINT (-68.2531638889 -2.9521),Santo Antônio do Içá,Amazonas,30202001857,-2.9521,-68.25316389
aldeias_pontos.fid-8091ffc_197eb49b98a_2f44,3407,AMBAÚBA,1101,1303809,09/10/2018,A,COORDENACAO REGIONAL DO RIO NEGRO,POINT (-67.9072527778 1.29083888889),São Gabriel da Cachoeira,Amazonas,30202001885,1.29083889,-67.90725278
aldeias_pontos.fid-8091ffc_197eb49b98a_2f45,3981,AMIMAJJ (NOEL),40701,1100098,14/10/2019,A,COORDENACAO REGIONAL DE CACOAL,POINT (-60.7058333333 -11.38175),Espigão D´Oeste,Rondônia,30202001934,-11.38175,-60.70583333
aldeias_pontos.fid-8091ffc_197eb49b98a_2f46,3203,AMIUM,59601,1303809,11/09/2018,A,COORDENACAO REGIONAL DO RIO NEGRO,POINT (-67.2739083333 0.525794444444),São Gabriel da Cachoeira,Amazonas,30202001885,0.52579444,-67.27390833
aldeias_pontos.fid-8091ffc_197eb49b98a_2f47,3705,AMOMI,47601,1600501,07/02/2019,A,COORDENACAO REGIONAL AMAPÁ E NORTE DO PARÁ,POINT (-51.4780555556 3.50938888889),Oiapoque,Amapá,30202001899,3.50938889,-51.47805556
aldeias_pontos.fid-8091ffc_197eb49b98a_2f48,5005,ANAHKWA (NA),49501,1400472,21/07/2022,A,COORDENACAO REGIONAL DE MANAUS,POINT (-60.5735555556 -0.124741666667),Rorainópolis,Roraima,30202001871,-0.12474167,-60.57355556
aldeias_pontos.fid-8091ffc_197eb49b98a_2f49,430,ANANÁS,1901,1400027,,A,COORDENACAO REGIONAL DE RORAIMA,POINT (-61.4291666667 3.89416666667),Amajari,Roraima,30202001955,3.89416667,-61.42916667
aldeias_pontos.fid-8091ffc_197eb49b98a_2f4a,2383,ANARO,51601,1400027,23/07/2018,A,COORDENACAO REGIONAL DE RORAIMA,POINT (-60.9709444444 3.93441944444),Amajari,Roraima,30202001955,3.93441944,-60.97094444
aldeias_pontos.fid-8091ffc_197eb49b98a_2f4b,3258,ANCHIETA,1101,1303809,13/09/2018,A,COORDENACAO REGIONAL DO RIO NEGRO,POINT (-69.9303444444 0.556494444444),São Gabriel da Cachoeira,Amazonas,30202001885,0.55649444,-69.93034444
aldeias_pontos.fid-8091ffc_197eb49b98a_2f4c,2467,ANDORINHA,54101,1302553,24/07/2018,A,COORDENACAO REGIONAL DE MANAUS,POINT (-60.3367055556 -3.46143055556),Manaquiri,Amazonas,30202001871,-3.46143056,-60.33670556
aldeias_pontos.fid-8091ffc_197eb49b98a_2f4d,2058,ANDORINHA,37901,1400704,01/06/2018,A,COORDENACAO REGIONAL DE RORAIMA,POINT (-60.2391305556 4.73043888889),Uiramutã,Roraima,30202001955,4.73043889,-60.23913056
aldeias_pontos.fid-8091ffc_197eb49b98a_2f4e,1479,ANGELIM,3601,2102036,16/04/2018,A,COORDENACAO REGIONAL MARANHÃO,POINT (-46.5941166667 -4.8043),Bom Jesus das Selvas,Maranhão,30202001997,-4.8043,-46.59411667
aldeias_pontos.fid-8091ffc_197eb49b98a_2f4f,2101,ANGICAL,37901,1400407,05/06/2018,A,COORDENACAO REGIONAL DE RORAIMA,POINT (-59.8326694444 4.1646),Normandia,Roraima,30202001955,4.1646,-59.83266944
aldeias_pontos.fid-8091ffc_197eb49b98a_2f50,1541,ANGICO TORTO,3601,2100600,17/04/2018,A,COORDENACAO REGIONAL MARANHÃO,POINT (-46.2157472222 -5.12693333333),Amarante do Maranhão,Maranhão,30202001997,-5.12693333,-46.21574722
aldeias_pontos.fid-8091ffc_197eb49b98a_2f51,2175,ANIKE,37901,1400407,07/06/2018,A,COORDENACAO REGIONAL DE RORAIMA,POINT (-60.3557055556 3.81164166667),Normandia,Roraima,30202001955,3.81164167,-60.35570556
aldeias_pontos.fid-8091ffc_197eb49b98a_2f52,2402,ANINGAL,2101,1400027,23/07/2018,A,COORDENACAO REGIONAL DE RORAIMA,POINT (-61.3867388889 3.45078611111),Amajari,Roraima,30202001955,3.45078611,-61.38673889
aldeias_pontos.fid-8091ffc_197eb49b98a_2f53,1896,ANTA,2201,1400050,17/05/2018,A,COORDENACAO REGIONAL DE RORAIMA,POINT (-61.1539694444 3.36345),Alto Alegre,Roraima,30202001955,3.36345,-61.15396944
aldeias_pontos.fid-8091ffc_197eb49b98a_2f54,2994,ANUM NOVO,12501,2706307,03/09/2018,A,COORDENACAO REGIONAL NORDESTE I,POINT (-36.5817388889 -9.39028333333),Palmeira dos Índios,Alagoas,30202001969,-9.39028333,-36.58173889
aldeias_pontos.fid-8091ffc_197eb49b98a_2f55,2548,APARECIDA,35401,1302702,24/07/2018,A,COORDENACAO REGIONAL DE MANAUS,POINT (-60.7615555556 -5.51306111111),Manicoré,Amazonas,30202001871,-5.51306111,-60.76155556
aldeias_pontos.fid-8091ffc_197eb49b98a_2f56,2326,APOENA MEIRELES,43001,5101407,12/07/2018,A,COORDENACAO REGIONAL DE CACOAL,POINT (-61.4069055556 -10.8113611111),Aripuanã,Mato Grosso,30202001934,-10.81136111,-61.40690556
aldeias_pontos.fid-8091ffc_197eb49b98a_2f57,2978,APUCARANINHA,2601,4113700,03/09/2018,A,COORDENACAO REGIONAL INTERIOR DO SUL,POINT (-50.9106666667 -23.7613361111),Londrina,Paraná,30202002088,-23.76133611,-50.91066667
aldeias_pontos.fid-8091ffc_197eb49b98a_2f58,2506,APUI,10101,1300805,24/07/2018,A,COORDENACAO REGIONAL DE MANAUS,POINT (-59.5863527778 -5.13305555556),Borba,Amazonas,30202001871,-5.13305556,-59.58635278
aldeias_pontos.fid-8091ffc_197eb49b98a_2f59,1890,APUM,17901,1400209,17/05/2018,A,COORDENACAO REGIONAL DE RORAIMA,POINT (-59.9554388889 1.98891111111),Caracaraí,Roraima,30202001955,1.98891111,-59.95543889
aldeias_pontos.fid-8091ffc_197eb49b98a_2f5a,3219,ARACU,1101,1303809,13/09/2018,A,COORDENACAO REGIONAL DO RIO NEGRO,POINT (-68.8663777778 1.61368611111),São Gabriel da Cachoeira,Amazonas,30202001885,1.61368611,-68.86637778
aldeias_pontos.fid-8091ffc_197eb49b98a_2f5b,2859,ARAI,37901,1400456,31/07/2018,A,COORDENACAO REGIONAL DE RORAIMA,POINT (-60.8165138889 4.27130277778),Pacaraima,Roraima,30202001955,4.27130278,-60.81651389
aldeias_pontos.fid-8091ffc_197eb49b98a_2f5c,1929,ARAI,58401,1400456,17/05/2018,A,COORDENACAO REGIONAL DE RORAIMA,POINT (-61.0916694444 4.42310833333),Pacaraima,Roraima,30202001955,4.42310833,-61.09166944
aldeias_pontos.fid-8091ffc_197eb49b98a_2f5d,2469,ARAJAÍ,54101,1302553,24/07/2018,A,COORDENACAO REGIONAL DE MANAUS,POINT (-60.5768166667 -3.66135),Manaquiri,Amazonas,30202001871,-3.66135,-60.57681667
aldeias_pontos.fid-8091ffc_197eb49b98a_2f5e,1478,ARAME,3601,2101350,16/04/2018,A,COORDENACAO REGIONAL MARANHÃO,POINT (-46.0123666667 -4.88443333333),Bacurituba,Maranhão,30202001997,-4.88443333,-46.01236667
aldeias_pontos.fid-8091ffc_197eb49b98a_2f5f,1971,ARAMU,37901,1400704,21/05/2018,A,COORDENACAO REGIONAL DE RORAIMA,POINT (-59.9142777778 4.32220277778),Uiramutã,Roraima,30202001955,4.32220278,-59.91427778
aldeias_pontos.fid-8091ffc_197eb49b98a_2f60,2292,ARANHE,33801,5103858,09/07/2018,A,COORDENACAO REGIONAL DO XINGU,POINT (-52.8242305556 -12.8620333333),Gaúcha do Norte,Mato Grosso,30202002060,-12.86203333,-52.82423056
aldeias_pontos.fid-8091ffc_197eb49b98a_2f61,1484,ARAPARI,3601,2100600,16/04/2018,A,COORDENACAO REGIONAL MARANHÃO,POINT (-46.7151833333 -5.06883333333),Amarante do Maranhão,Maranhão,30202001997,-5.06883333,-46.71518333
aldeias_pontos.fid-8091ffc_197eb49b98a_2f62,1673,ARAPAÇU,8101,1302405,25/04/2018,A,COORDENACAO REGIONAL MÉDIO PURUS,POINT (-64.8023694444 -7.33384722222),Lábrea,Amazonas,30202001878,-7.33384722,-64.80236944
aldeias_pontos.fid-8091ffc_197eb49b98a_2f63,1672,ARAPAÇUZINHO,8101,1302405,25/04/2018,A,COORDENACAO REGIONAL MÉDIO PURUS,POINT (-64.8051777778 -7.32616111111),Lábrea,Amazonas,30202001878,-7.32616111,-64.80517778
aldeias_pontos.fid-8091ffc_197eb49b98a_2f64,2080,ARAPÁ,37901,1400704,01/06/2018,A,COORDENACAO REGIONAL DE RORAIMA,POINT (-60.28615 4.63616388889),Uiramutã,Roraima,30202001955,4.63616389,-60.28615
aldeias_pontos.fid-8091ffc_197eb49b98a_2f65,453,ARARA,48701,1300201,,A,COORDENACAO REGIONAL DO VALE DO JAVARI,POINT (-70.5694166667 -5.87541666667),Atalaia do Norte,Amazonas,30202001892,-5.87541667,-70.56941667
aldeias_pontos.fid-8091ffc_197eb49b98a_2f66,3821,ARAUACÁ,67401,1303601,01/04/2019,A,COORDENACAO REGIONAL DO RIO NEGRO,POINT (-65.152669444444 -1.1069527777778),Santa Isabel do Rio Negro,Amazonas,30202001885,-1.10695278,-65.15266944
aldeias_pontos.fid-8091ffc_197eb49b98a_2f67,4960,ARAWYBA (AW),49501,1303205,21/07/2022,A,COORDENACAO REGIONAL DE MANAUS,POINT (-61.2890583333 -1.13567777778),Novo Airão,Amazonas,30202001871,-1.13567778,-61.28905833
aldeias_pontos.fid-8091ffc_197eb49b98a_2f68,2252,ARAY,3701,1300805,26/06/2018,A,COORDENACAO REGIONAL DE MANAUS,POINT (-60.0513888889 -4.85833333333),Borba,Amazonas,30202001871,-4.85833333,-60.05138889
aldeias_pontos.fid-8091ffc_197eb49b98a_2f69,2279,ARAYO,33801,5103700,09/07/2018,A,COORDENACAO REGIONAL DO XINGU,POINT (-53.6099361111 -11.7381305556),Feliz Natal,Mato Grosso,30202002060,-11.73813056,-53.60993611
aldeias_pontos.fid-8091ffc_197eb49b98a_2f6a,2390,ARAÇA,3101,1400027,23/07/2018,A,COORDENACAO REGIONAL DE RORAIMA,POINT (-61.0030083333 3.64744444444),Amajari,Roraima,30202001955,3.64744444,-61.00300833
aldeias_pontos.fid-8091ffc_197eb49b98a_2f6b,1939,ARAÇA,3101,1400027,18/05/2018,A,COORDENACAO REGIONAL DE RORAIMA,POINT (-61.1159861111 3.58869166667),Amajari,Roraima,30202001955,3.58869167,-61.11598611
aldeias_pontos.fid-8091ffc_197eb49b98a_2f6c,1220,ARAÇA,34601,1302405,10/07/2017,A,COORDENACAO REGIONAL MÉDIO PURUS,POINT (-64.9325 -7.315),Lábrea,Amazonas,30202001878,-7.315,-64.9325
aldeias_pontos.fid-8091ffc_197eb49b98a_2f6d,3125,ARAÇA,23101,2902658,06/09/2018,A,COORDENACAO REGIONAL BAIXO SÃO FRANCISCO,POINT (-38.5936888889 -10.6592388889),Banzaê,Bahia,30202001983,-10.65923889,-38.59368889
aldeias_pontos.fid-8091ffc_197eb49b98a_2f6e,2009,ARAÇA DA SERRA,37901,1400407,25/05/2018,A,COORDENACAO REGIONAL DE RORAIMA,POINT (-60.4411027778 4.17271666667),Normandia,Roraima,30202001955,4.17271667,-60.44110278
aldeias_pontos.fid-8091ffc_197eb49b98a_2f6f,2989,ARAÇAÍ,45601,4204202,03/09/2018,A,COORDENACAO REGIONAL INTERIOR DO SUL,POINT (-52.5340638889 -27.1582277778),Chapecó,Santa Catarina,30202002088,-27.15822778,-52.53406389
aldeias_pontos.fid-8091ffc_197eb49b98a_2f70,1857,AREIA,30501,1303007,15/05/2018,A,COORDENACAO REGIONAL DE MANAUS,POINT (-57.6182611111 -1.58930277778),Nhamundá,Amazonas,30202001871,-1.58930278,-57.61826111
aldeias_pontos.fid-8091ffc_197eb49b98a_2f71,3471,AREIA,38301,4110201,16/10/2018,A,COORDENACAO REGIONAL DE GUARAPUAVA,POINT (-51.2442861111 -25.7708861111),Inácio Martins,Paraná,30202002408,-25.77088611,-51.24428611
aldeias_pontos.fid-8091ffc_197eb49b98a_2f72,759,AREIA BRANCA,2401,1721208,20/10/2016,A,COORDENACAO REGIONAL ARAGUAIA TOCANTINS,POINT (-47.5580555556 -6.34027777778),Tocantinópolis,Tocantins,30202001962,-6.34027778,-47.55805556
aldeias_pontos.fid-8091ffc_197eb49b98a_2f73,2897,AREIA DOS PEDROS,4501,2603926,06/08/2018,A,COORDENACAO REGIONAL BAIXO SÃO FRANCISCO,POINT (-38.7687805556 -8.25208055556),Carnaubeira da Penha,Pernambuco,30202001983,-8.25208056,-38.76878056
aldeias_pontos.fid-8091ffc_197eb49b98a_2f74,1694,AREINHA,40301,2102002,30/04/2018,A,COORDENACAO REGIONAL MARANHÃO,POINT (-45.4823194444 -3.64831944444),Bom Jardim,Maranhão,30202001997,-3.64831944,-45.48231944
aldeias_pontos.fid-8091ffc_197eb49b98a_2f75,1695,AREIÃO,40301,2102002,30/04/2018,A,COORDENACAO REGIONAL MARANHÃO,POINT (-45.4742805556 -3.64729722222),Bom Jardim,Maranhão,30202001997,-3.64729722,-45.47428056
aldeias_pontos.fid-8091ffc_197eb49b98a_2f76,2951,ARGOLA,7701,5005608,31/08/2018,A,COORDENACAO REGIONAL DE CAMPO GRANDE,POINT (-56.296675 -20.1937555556),Miranda,Mato Grosso do Sul,30202002004,-20.19375556,-56.296675
aldeias_pontos.fid-8091ffc_197eb49b98a_2f77,5003,ARIKAWA (AK),49501,1303205,21/07/2022,A,COORDENACAO REGIONAL DE MANAUS,POINT (-60.8578888889 -0.684038888889),Novo Airão,Amazonas,30202001871,-0.68403889,-60.85788889
aldeias_pontos.fid-8091ffc_197eb49b98a_2f78,4994,ARINE PV,49501,1303536,21/07/2022,A,COORDENACAO REGIONAL DE MANAUS,POINT (-60.1389222222 -1.26290277778),Presidente Figueiredo,Amazonas,30202001871,-1.26290278,-60.13892222
aldeias_pontos.fid-8091ffc_197eb49b98a_2f79,5006,ARINÉ ( AR),49501,1303536,21/07/2022,A,COORDENACAO REGIONAL DE MANAUS,POINT (-60.1294583333 -1.25519444444),Presidente Figueiredo,Amazonas,30202001871,-1.25519444,-60.12945833
aldeias_pontos.fid-8091ffc_197eb49b98a_2f7a,1644,ARIRAMBA,13301,1600501,20/04/2018,A,COORDENACAO REGIONAL AMAPÁ E NORTE DO PARÁ,POINT (-51.726444444444 3.9993611111111),Oiapoque,Amapá,30202001899,3.99936111,-51.72644444
aldeias_pontos.fid-8091ffc_197eb49b98a_2f7b,1843,ARIRAMBA,53501,1302306,15/05/2018,A,COORDENACAO REGIONAL DO ALTO SOLIMOES,POINT (-67.1184305556 -3.25347777778),Jutaí,Amazonas,30202001857,-3.25347778,-67.11843056
aldeias_pontos.fid-8091ffc_197eb49b98a_2f7c,3074,ARROIO KORÁ,4401,5006358,05/09/2018,A,COORDENACAO REGIONAL DE PONTA PORA,POINT (-55.2492583333 -23.6848694444),Paranhos,Mato Grosso do Sul,30202002018,-23.68486944,-55.24925833
aldeias_pontos.fid-8091ffc_197eb49b98a_2f7d,2498,ARU,10101,1300805,24/07/2018,A,COORDENACAO REGIONAL DE MANAUS,POINT (-59.2501416667 -4.36931111111),Borba,Amazonas,30202001871,-4.36931111,-59.25014167
aldeias_pontos.fid-8091ffc_197eb49b98a_2f7e,1605,ARUAK,33801,5103700,18/04/2018,A,COORDENACAO REGIONAL DO XINGU,POINT (-53.8570333333 -12.0670861111),Feliz Natal,Mato Grosso,30202002060,-12.06708611,-53.85703333
aldeias_pontos.fid-8091ffc_197eb49b98a_2f7f,715,ARUANÃ I,21001,5213087,20/10/2016,A,COORDENACAO REGIONAL ARAGUAIA TOCANTINS,POINT (-51.0755555556 -14.8975),Minaçu,Goiás,30202001962,-14.8975,-51.07555556
aldeias_pontos.fid-8091ffc_197eb49b98a_2f80,3796,ARUMÃ,58201,1302306,01/04/2019,A,COORDENACAO REGIONAL DO ALTO SOLIMOES,POINT (-67.2308694444 -2.85581111111),Jutaí,Amazonas,30202001857,-2.85581111,-67.23086944
aldeias_pontos.fid-8091ffc_197eb49b98a_2f81,2502,AS COBRAS,10101,1300805,24/07/2018,A,COORDENACAO REGIONAL DE MANAUS,POINT (-59.1696083333 -4.53179722222),Borba,Amazonas,30202001871,-4.53179722,-59.16960833
aldeias_pontos.fid-8091ffc_197eb49b98a_2f82,4958,ASE MARÉ (AM),49501,1303205,21/07/2022,A,COORDENACAO REGIONAL DE MANAUS,POINT (-61.2756 -1.677325),Novo Airão,Amazonas,30202001871,-1.677325,-61.2756
aldeias_pontos.fid-8091ffc_197eb49b98a_2f83,3838,ASSUNÇÃO,36801,1300029,01/04/2019,A,COORDENACAO REGIONAL DO ALTO SOLIMOES,POINT (-64.9031166667 -3.11286388889),Alvarães,Amazonas,30202001857,-3.11286389,-64.90311667
aldeias_pontos.fid-8091ffc_197eb49b98a_2f84,2369,ATERRADINHO,5101,5101605,19/07/2018,A,COORDENACAO REGIONAL DE CUIABA,POINT (-56.5936416667 -17.0097888889),Barão de Melgaço,Mato Grosso,30202002025,-17.00978889,-56.59364167
aldeias_pontos.fid-8091ffc_197eb49b98a_2f85,2280,ATIXI TIXIKXU,33801,5107065,09/07/2018,A,COORDENACAO REGIONAL DO XINGU,POINT (-53.4933305556 -11.9096944444),Querência,Mato Grosso,30202002060,-11.90969444,-53.49333056
aldeias_pontos.fid-8091ffc_197eb49b98a_2f86,2186,ATSERERÉ,35301,5102702,08/06/2018,A,COORDENACAO REGIONAL RIBEIRAO CASCALHEIRA,POINT (-51.8957777778 -13.5070833333),Canarana,Mato Grosso,30202002046,-13.50708333,-51.89577778
aldeias_pontos.fid-8091ffc_197eb49b98a_2f87,1706,ATURUA,5201,5106307,30/04/2018,A,COORDENACAO REGIONAL DE CUIABA,POINT (-54.6506916667 -14.391),Paranatinga,Mato Grosso,30202002025,-14.391,-54.65069167
aldeias_pontos.fid-8091ffc_197eb49b98a_2f88,4959,ATYWA (AT),49501,1303536,21/07/2022,A,COORDENACAO REGIONAL DE MANAUS,POINT (-60.5613444444 -1.73133055556),Presidente Figueiredo,Amazonas,30202001871,-1.73133056,-60.56134444
aldeias_pontos.fid-8091ffc_197eb49b98a_2f89,3207,AUXILIADORA,59601,1303809,11/09/2018,A,COORDENACAO REGIONAL DO RIO NEGRO,POINT (-67.2992138889 0.387597222222),São Gabriel da Cachoeira,Amazonas,30202001885,0.38759722,-67.29921389
aldeias_pontos.fid-8091ffc_197eb49b98a_2f8a,714,AVÁ CANOEIRO,4602,5213087,10/10/2016,A,COORDENACAO REGIONAL ARAGUAIA TOCANTINS,POINT (-48.2227777778 -13.7588888889),Minaçu,Goiás,30202001962,-13.75888889,-48.22277778
aldeias_pontos.fid-8091ffc_197eb49b98a_2f8b,1805,AWENDEI,37901,1400704,11/05/2018,A,COORDENACAO REGIONAL DE RORAIMA,POINT (-60.4095166667 5.03156944444),Uiramutã,Roraima,30202001955,5.03156944,-60.40951667
aldeias_pontos.fid-8091ffc_197eb49b98a_2f8c,1581,AWETI,33801,5103858,18/04/2018,A,COORDENACAO REGIONAL DO XINGU,POINT (-53.3917111111 -12.3822388889),Gaúcha do Norte,Mato Grosso,30202002060,-12.38223889,-53.39171111
aldeias_pontos.fid-8091ffc_197eb49b98a_2f8d,2027,AYARANÃ,68101,1505304,29/05/2018,A,COORDENACAO REGIONAL DE MANAUS,POINT (-56.8743333333 -0.639194444444),Oriximiná,Pará,30202001871,-0.63919444,-56.87433333
aldeias_pontos.fid-8091ffc_197eb49b98a_2f8e,1370,AYPEREP,29801,1503754,11/04/2018,A,COORDENACAO REGIONAL DE TAPAJOS,POINT (-57.2898111111 -7.77813055556),Jacareacanga,Pará,30202001927,-7.77813056,-57.28981111
aldeias_pontos.fid-8091ffc_197eb49b98a_2f8f,1268,A`Ukre,23001,1507300,21/09/2017,A,COORDENACAO REGIONAL KAYAPÓ SUL DO PARÁ,POINT (-51.88217998320602 -7.694793559048649),São Félix do Xingu,Pará,30202001920,-7.69479356,-51.88217998
aldeias_pontos.fid-8091ffc_197eb49b98a_2f90,4773,Abacateiro,3801,1500602,28/03/2022,A,COORDENACAO REGIONAL CENTRO-LESTE DO PARÁ,POINT (-52.6608333333 -4.27525),Altamira,Pará,30202001913,-4.27525,-52.66083333
aldeias_pontos.fid-8091ffc_197eb49b98a_2f91,4357,Abaeté/Santana,55501,2913606,17/06/2021,A,COORDENACAO REGIONAL DO SUL DA BAHIA,POINT (-39.1689138889 -14.9765944444),Ilhéus,Bahia,30202001990,-14.97659444,-39.16891389
aldeias_pontos.fid-8091ffc_197eb49b98a_2f92,498,Abandonada,16201,1100122,,A,COORDENACAO REGIONAL DE JI PARANA,POINT (-61.5761388889 -10.7551666667),Ji-Paraná,Rondônia,30202001948,-10.75516667,-61.57613889
aldeias_pontos.fid-8091ffc_197eb49b98a_2f93,511,Abesewap (Paulo Sérgio),51101,5107578,,A,COORDENACAO REGIONAL DE JI PARANA,POINT (-60.7376666667 -10.73515),Rondolândia,Mato Grosso,30202001948,-10.73515,-60.73766667
aldeias_pontos.fid-8091ffc_197eb49b98a_2f94,4579,Abianai,40401,1303601,06/09/2021,A,COORDENACAO REGIONAL DO RIO NEGRO,POINT (-65.2519916667 -0.407702777778),Santa Isabel do Rio Negro,Amazonas,30202001885,-0.40770278,-65.25199167
aldeias_pontos.fid-8091ffc_197eb49b98a_2f95,3746,Acará Mirim,44601,1508001,27/03/2019,A,COORDENACAO REGIONAL DO BAIXO TOCANTINS,POINT (-48.2739388889 -2.69),Tomé-Açu,Pará,30202001906,-2.69,-48.27393889
aldeias_pontos.fid-8091ffc_197eb49b98a_2f96,5241,Acorizal,59001,5106828,10/01/2025,A,COORDENACAO REGIONAL DE CUIABA,POINT (-59.415112222222 -16.232463555556),Porto Esperidião,Mato Grosso,30202002025,-16.23246356,-59.41511222
aldeias_pontos.fid-8091ffc_197eb49b98a_2f97,4286,Acuipe de Cima,55501,2913606,10/12/2020,A,COORDENACAO REGIONAL DO SUL DA BAHIA,POINT (-39.0541166667 -15.0161),Ilhéus,Bahia,30202001990,-15.0161,-39.05411667
aldeias_pontos.fid-8091ffc_197eb49b98a_2f98,4363,Acuípe de Baixo,55501,2913606,17/06/2021,A,COORDENACAO REGIONAL DO SUL DA BAHIA,POINT (-38.9990833333 -15.0810666667),Ilhéus,Bahia,30202001990,-15.08106667,-38.99908333
aldeias_pontos.fid-8091ffc_197eb49b98a_2f99,4364,Acuípe do Meio,55501,2913606,17/06/2021,A,COORDENACAO REGIONAL DO SUL DA BAHIA,POINT (-39.9990833333 -15.01295),Ilhéus,Bahia,30202001990,-15.01295,-39.99908333
aldeias_pontos.fid-8091ffc_197eb49b98a_2f9a,4089,Adjuaga (Kuluene),33801,5102702,10/06/2020,A,COORDENACAO REGIONAL DO XINGU,POINT (-52.810908333333 -12.849044444444),Canarana,Mato Grosso,30202002060,-12.84904444,-52.81090833
aldeias_pontos.fid-8091ffc_197eb49b98a_2f9b,4170,Afukuri,33801,5107065,10/06/2020,A,COORDENACAO REGIONAL DO XINGU,POINT (-53.004125 -12.517272222222),Querência,Mato Grosso,30202002060,-12.51727222,-53.004125
aldeias_pontos.fid-8091ffc_197eb49b98a_2f9c,4093,Agatha (Barranco Queimado),33801,5103858,10/06/2020,A,COORDENACAO REGIONAL DO XINGU,POINT (-52.914252777778 -12.766397222222),Gaúcha do Norte,Mato Grosso,30202002060,-12.76639722,-52.91425278
aldeias_pontos.fid-8091ffc_197eb49b98a_2f9d,4390,Agricultura,10301,2927705,21/06/2021,A,COORDENACAO REGIONAL DO SUL DA BAHIA,POINT (-39.0513305556 -16.3378027778),Santa Cruz Cabrália,Bahia,30202001990,-16.33780278,-39.05133056
aldeias_pontos.fid-8091ffc_197eb49b98a_2f9e,4916,Agrovila,64701,2307502,16/05/2022,A,COORDENACAO REGIONAL NORDESTE II,POINT (-39.10515 -6.89697777778),Lavras da Mangabeira,Ceará,30202001976,-6.89697778,-39.10515
aldeias_pontos.fid-8091ffc_197eb49b98a_2f9f,243,Aguapeú,14501,3531100,,A,COORDENACAO REGIONAL LITORAL SUDESTE,POINT (-45.813611111111 -23.721036111111),Mongaguá,São Paulo,30202002074,-23.72103611,-45.81361111
aldeias_pontos.fid-8091ffc_197eb49b98a_2fa0,3460,Aguas Belas,501,2925501,16/10/2018,A,COORDENACAO REGIONAL DO SUL DA BAHIA,POINT (-39.2541138889 -16.9336805556),Prado,Bahia,30202001990,-16.93368056,-39.25411389
aldeias_pontos.fid-8091ffc_197eb49b98a_2fa1,152,Ahumâ,47601,1600501,,A,COORDENACAO REGIONAL AMAPÁ E NORTE DO PARÁ,POINT (-51.70825 3.37944444444),Oiapoque,Amapá,30202001899,3.37944444,-51.70825
aldeias_pontos.fid-8091ffc_197eb49b98a_2fa2,4176,Aiha (Kalapalo),33801,5107065,10/06/2020,A,COORDENACAO REGIONAL DO XINGU,POINT (-53.255791666667 -12.162930555556),Querência,Mato Grosso,30202002060,-12.16293056,-53.25579167
aldeias_pontos.fid-8091ffc_197eb49b98a_2fa3,189,Aiki,33701,1505106,,A,COORDENACAO REGIONAL AMAPÁ E NORTE DO PARÁ,POINT (-55.909141666667 2.2208555555556),Óbidos,Pará,30202001899,2.22085556,-55.90914167
aldeias_pontos.fid-8091ffc_197eb49b98a_2fa4,4151,Aiporé,33801,5105580,10/06/2020,A,COORDENACAO REGIONAL DO XINGU,POINT (-53.422108333333 -11.045261111111),Marcelândia,Mato Grosso,30202002060,-11.04526111,-53.42210833
aldeias_pontos.fid-8091ffc_197eb49b98a_2fa5,4239,Aitirimã,3801,1500602,16/07/2020,A,COORDENACAO REGIONAL CENTRO-LESTE DO PARÁ,POINT (-52.7416944444 -4.71802777778),Altamira,Pará,30202001913,-4.71802778,-52.74169444
aldeias_pontos.fid-8091ffc_197eb49b98a_2fa6,703,Ajuriti,3801,1500602,19/08/2016,A,COORDENACAO REGIONAL CENTRO-LESTE DO PARÁ,POINT (-52.5962777778 -4.17083333333),Altamira,Pará,30202001913,-4.17083333,-52.59627778
aldeias_pontos.fid-8091ffc_197eb49b98a_2fa7,240,Akaju,49401,1600154,,A,COORDENACAO REGIONAL AMAPÁ E NORTE DO PARÁ,POINT (-52.4407833333 0.935816666667),Pedra Branca do Amapari,Amapá,30202001899,0.93581667,-52.44078333
aldeias_pontos.fid-8091ffc_197eb49b98a_2fa8,4210,Akamassyron,43201,1507151,15/07/2020,A,COORDENACAO REGIONAL DO BAIXO TOCANTINS,POINT (-48.6214444444 -5.87997222222),São Domingos do Araguaia,Pará,30202001906,-5.87997222,-48.62144444
aldeias_pontos.fid-8091ffc_197eb49b98a_2fa9,26,Akrotikatejê,26001,1501576,,A,COORDENACAO REGIONAL DO BAIXO TOCANTINS,POINT (-48.848458333333 -5.1406944444444),Bom Jesus do Tocantins,Pará,30202001906,-5.14069444,-48.84845833
aldeias_pontos.fid-8091ffc_197eb49b98a_2faa,23,Akrãkaprêkti,26001,1501576,,A,COORDENACAO REGIONAL DO BAIXO TOCANTINS,POINT (-48.873333333333 -5.1546388888889),Bom Jesus do Tocantins,Pará,30202001906,-5.15463889,-48.87333333
aldeias_pontos.fid-8091ffc_197eb49b98a_2fab,28,Akrãti,26001,1501576,,A,COORDENACAO REGIONAL DO BAIXO TOCANTINS,POINT (-49.004444444444 -5.2172222222222),Bom Jesus do Tocantins,Pará,30202001906,-5.21722222,-49.00444444
aldeias_pontos.fid-8091ffc_197eb49b98a_2fac,22,Akrãtikatejê,26001,1501576,,A,COORDENACAO REGIONAL DO BAIXO TOCANTINS,POINT (-49.017125 -5.1824305555556),Bom Jesus do Tocantins,Pará,30202001906,-5.18243056,-49.017125
aldeias_pontos.fid-8091ffc_197eb49b98a_2fad,5044,Akyku,39501,1100106,21/11/2022,A,COORDENACAO REGIONAL DE GUAJARA MIRIM,POINT (-64.8602777778 -11.805),Guajará-Mirim,Rondônia,30202001941,-11.805,-64.86027778
aldeias_pontos.fid-8091ffc_197eb49b98a_2fae,544,Aldeia 621,48201,1101005,,A,COORDENACAO REGIONAL DE JI PARANA,POINT (-62.9507972222 -10.7883611111),Governador Jorge Teixeira,Rondônia,30202001948,-10.78836111,-62.95079722
aldeias_pontos.fid-8091ffc_197eb49b98a_2faf,5105,Aldeia Acariazal,31601,1100106,13/07/2023,A,COORDENACAO REGIONAL DE GUAJARA MIRIM,POINT (-65.1756166667 -11.0448),Guajará-Mirim,Rondônia,30202001941,-11.0448,-65.17561667
aldeias_pontos.fid-8091ffc_197eb49b98a_2fb0,472,Aldeia Alto Jamari,48201,1101401,,A,COORDENACAO REGIONAL DE JI PARANA,POINT (-63.4544277778 -10.7090333333),Monte Negro,Rondônia,30202001948,-10.70903333,-63.45442778
aldeias_pontos.fid-8091ffc_197eb49b98a_2fb1,4722,Aldeia Ananás,1101,1303809,18/03/2022,A,COORDENACAO REGIONAL DO RIO NEGRO,POINT (-68.3053722222 0.00984722222222),São Gabriel da Cachoeira,Amazonas,30202001885,0.00984722,-68.30537222
aldeias_pontos.fid-8091ffc_197eb49b98a_2fb2,5024,Aldeia Apuí,31601,1100106,22/08/2022,A,COORDENACAO REGIONAL DE GUAJARA MIRIM,POINT (-65.2783333333 -11.0894444444),Guajará-Mirim,Rondônia,30202001941,-11.08944444,-65.27833333
aldeias_pontos.fid-8091ffc_197eb49b98a_2fb3,5088,Aldeia Badjõkôre,50501,1500347,12/05/2023,A,COORDENACAO REGIONAL DO BAIXO TOCANTINS,POINT (-50.6185833333 -6.68766666667),Água Azul do Norte,Pará,30202001906,-6.68766667,-50.61858333
aldeias_pontos.fid-8091ffc_197eb49b98a_2fb4,5112,Aldeia Barranquilha,31601,1100106,17/07/2023,A,COORDENACAO REGIONAL DE GUAJARA MIRIM,POINT (-65.2909166667 -11.3326111111),Guajará-Mirim,Rondônia,30202001941,-11.33261111,-65.29091667
aldeias_pontos.fid-8091ffc_197eb49b98a_2fb5,1266,Aldeia Bau,6101,1500602,21/09/2017,A,COORDENACAO REGIONAL DE CUIABA,POINT (-54.82042050313396 -7.340587720319468),Altamira,Pará,30202002025,-7.34058772,-54.8204205
aldeias_pontos.fid-8091ffc_197eb49b98a_2fb6,5102,Aldeia Baía do Jatobá,31601,1100106,10/07/2023,A,COORDENACAO REGIONAL DE GUAJARA MIRIM,POINT (-65.2034527778 -11.0194305556),Guajará-Mirim,Rondônia,30202001941,-11.01943056,-65.20345278
aldeias_pontos.fid-8091ffc_197eb49b98a_2fb7,4244,Aldeia Boa Vista,62001,1508357,16/07/2020,A,COORDENACAO REGIONAL CENTRO-LESTE DO PARÁ,POINT (-52.1578055556 -3.0715),Vitória do Xingu,Pará,30202001913,-3.0715,-52.15780556
aldeias_pontos.fid-8091ffc_197eb49b98a_2fb8,3910,Aldeia Bom Futuro,31601,1100106,29/04/2019,A,COORDENACAO REGIONAL DE GUAJARA MIRIM,POINT (-64.9631972222 -11.2185166667),Guajará-Mirim,Rondônia,30202001941,-11.21851667,-64.96319722
aldeias_pontos.fid-8091ffc_197eb49b98a_2fb9,5108,Aldeia Bom Jesus,31601,1100106,13/07/2023,A,COORDENACAO REGIONAL DE GUAJARA MIRIM,POINT (-65.1340805556 -11.6163388889),Guajará-Mirim,Rondônia,30202001941,-11.61633889,-65.13408056
aldeias_pontos.fid-8091ffc_197eb49b98a_2fba,4289,Aldeia Cachoeirinha,70201,2610806,16/03/2021,A,COORDENACAO REGIONAL NORDESTE I,POINT (-36.8355 -8.4433),Pedra,Pernambuco,30202001969,-8.4433,-36.8355
aldeias_pontos.fid-8091ffc_197eb49b98a_2fbb,504,"Aldeia Cacoal \""Akóhvh vaá",16201,1100122,,A,COORDENACAO REGIONAL DE JI PARANA,POINT (-61.5975555556 -10.7141111111),Ji-Paraná,Rondônia,30202001948,-10.71411111,-61.59755556
aldeias_pontos.fid-8091ffc_197eb49b98a_2fbc,4288,Aldeia Cajueiro,70201,2610905,16/03/2021,A,COORDENACAO REGIONAL NORDESTE I,POINT (-36.8378 -8.4284),Pesqueira,Pernambuco,30202001969,-8.4284,-36.8378
aldeias_pontos.fid-8091ffc_197eb49b98a_2fbd,3899,Aldeia Cajueiro,31601,1100106,17/04/2019,A,COORDENACAO REGIONAL DE GUAJARA MIRIM,POINT (-65.2213555556 -11.000875),Guajará-Mirim,Rondônia,30202001941,-11.000875,-65.22135556
aldeias_pontos.fid-8091ffc_197eb49b98a_2fbe,489,Aldeia Cajui,38601,1101492,,A,COORDENACAO REGIONAL DE JI PARANA,POINT (-62.7947222222 -12.3472222222),São Francisco do Guaporé,Rondônia,30202001948,-12.34722222,-62.79472222
aldeias_pontos.fid-8091ffc_197eb49b98a_2fbf,3904,Aldeia Capoeirinha.,31601,1100106,23/04/2019,A,COORDENACAO REGIONAL DE GUAJARA MIRIM,POINT (-65.2034527778 -11.0194305556),Guajará-Mirim,Rondônia,30202001941,-11.01943056,-65.20345278
aldeias_pontos.fid-8091ffc_197eb49b98a_2fc0,4723,Aldeia Carauatana,1101,1303809,18/03/2022,A,COORDENACAO REGIONAL DO RIO NEGRO,POINT (-67.8391111111 0.143836111111),São Gabriel da Cachoeira,Amazonas,30202001885,0.14383611,-67.83911111
aldeias_pontos.fid-8091ffc_197eb49b98a_2fc1,3902,Aldeia Casa Branca,16101,1100106,22/04/2019,I,COORDENACAO REGIONAL DE GUAJARA MIRIM,POINT (-64.8081666667 -10.4263055556),Guajará-Mirim,Rondônia,30202001941,-10.42630556,-64.80816667
aldeias_pontos.fid-8091ffc_197eb49b98a_2fc2,3898,Aldeia Castanhal.,16101,1100106,17/04/2019,A,COORDENACAO REGIONAL DE GUAJARA MIRIM,POINT (-65.2189166667 -10.4498611111),Guajará-Mirim,Rondônia,30202001941,-10.44986111,-65.21891667
aldeias_pontos.fid-8091ffc_197eb49b98a_2fc3,5107,Aldeia Castanheira,31601,1100106,13/07/2023,A,COORDENACAO REGIONAL DE GUAJARA MIRIM,POINT (-65.1455055556 -11.6163388889),Guajará-Mirim,Rondônia,30202001941,-11.61633889,-65.14550556
aldeias_pontos.fid-8091ffc_197eb49b98a_2fc4,4724,Aldeia Colinas,1101,1303809,18/03/2022,A,COORDENACAO REGIONAL DO RIO NEGRO,POINT (-69.0098027778 0.117797222222),São Gabriel da Cachoeira,Amazonas,30202001885,0.11779722,-69.00980278
aldeias_pontos.fid-8091ffc_197eb49b98a_2fc5,484,Aldeia Colorado,38601,1100320,,A,COORDENACAO REGIONAL DE JI PARANA,POINT (-62.6494444444 -12.2366666667),São Miguel do Guaporé,Rondônia,30202001948,-12.23666667,-62.64944444
aldeias_pontos.fid-8091ffc_197eb49b98a_2fc6,477,Aldeia Comandante Ari (posto indígena desativado),48201,1100023,,A,COORDENACAO REGIONAL DE JI PARANA,POINT (-63.0055555556 -10.9475),Ariquemes,Rondônia,30202001948,-10.9475,-63.00555556
aldeias_pontos.fid-8091ffc_197eb49b98a_2fc7,4726,Aldeia Corocoró,1101,1303809,18/03/2022,A,COORDENACAO REGIONAL DO RIO NEGRO,POINT (-68.6215972222 0.0423333333333),São Gabriel da Cachoeira,Amazonas,30202001885,0.04233333,-68.62159722
aldeias_pontos.fid-8091ffc_197eb49b98a_2fc8,4725,Aldeia Coró Coró dos Uapés,1101,1303809,18/03/2022,A,COORDENACAO REGIONAL DO RIO NEGRO,POINT (-67.6874638889 0.116366666667),São Gabriel da Cachoeira,Amazonas,30202001885,0.11636667,-67.68746389
aldeias_pontos.fid-8091ffc_197eb49b98a_2fc9,610,Aldeia Encontro das Águas,12701,3113800,,A,COORDENACAO REGIONAL DE MINAS GERAIS E ESPIRITO SANTOS,POINT (-43.1102472222 -19.0638416667),Carmésia,Minas Gerais,30202002067,-19.06384167,-43.11024722
aldeias_pontos.fid-8091ffc_197eb49b98a_2fca,485,Aldeia Encrenca,38601,1101492,,A,COORDENACAO REGIONAL DE JI PARANA,POINT (-62.7491666667 -12.3422222222),São Francisco do Guaporé,Rondônia,30202001948,-12.34222222,-62.74916667
aldeias_pontos.fid-8091ffc_197eb49b98a_2fcb,5071,Aldeia Escola Floresta,66001,3168606,06/03/2023,A,COORDENACAO REGIONAL DE MINAS GERAIS E ESPIRITO SANTOS,POINT (-41.3913888889 -17.9061111111),Teófilo Otoni,Minas Gerais,30202002067,-17.90611111,-41.39138889
aldeias_pontos.fid-8091ffc_197eb49b98a_2fcc,1338,Aldeia Flor do Prado,4201,5101407,10/04/2018,A,COORDENACAO REGIONAL NOROESTE DO MATO GROSSO,POINT (-60.4011333333 -10.7147666667),Aripuanã,Mato Grosso,30202002032,-10.71476667,-60.40113333
aldeias_pontos.fid-8091ffc_197eb49b98a_2fcd,3905,Aldeia Graças  a Deus,31601,1100106,23/04/2019,A,COORDENACAO REGIONAL DE GUAJARA MIRIM,POINT (-65.1521 -11.0834888889),Guajará-Mirim,Rondônia,30202001941,-11.08348889,-65.1521
aldeias_pontos.fid-8091ffc_197eb49b98a_2fce,287,Aldeia Guyrapaju,23602,3548708,,A,COORDENACAO REGIONAL LITORAL SUDESTE,POINT (-46.650922222222 -23.899130555556),São Bernardo do Campo,São Paulo,30202002074,-23.89913056,-46.65092222
aldeias_pontos.fid-8091ffc_197eb49b98a_2fcf,499,Aldeia Ikolen 1,16201,1100122,,A,COORDENACAO REGIONAL DE JI PARANA,POINT (-61.5860277778 -10.7526388889),Ji-Paraná,Rondônia,30202001948,-10.75263889,-61.58602778
aldeias_pontos.fid-8091ffc_197eb49b98a_2fd0,500,Aldeia Ikolen 2,16201,1100122,,A,COORDENACAO REGIONAL DE JI PARANA,POINT (-61.5879722222 -10.7467777778),Ji-Paraná,Rondônia,30202001948,-10.74677778,-61.58797222
aldeias_pontos.fid-8091ffc_197eb49b98a_2fd1,612,Aldeia Imbiruçú,12701,3113800,,A,COORDENACAO REGIONAL DE MINAS GERAIS E ESPIRITO SANTOS,POINT (-43.1277777778 -19.0537861111),Carmésia,Minas Gerais,30202002067,-19.05378611,-43.12777778
aldeias_pontos.fid-8091ffc_197eb49b98a_2fd2,490,Aldeia Indígena Igarapé Lourdes,16201,1100122,,A,COORDENACAO REGIONAL DE JI PARANA,POINT (-61.6529444444 -10.4340555556),Ji-Paraná,Rondônia,30202001948,-10.43405556,-61.65294444
aldeias_pontos.fid-8091ffc_197eb49b98a_2fd3,4728,Aldeia Ipanoré,1101,1303809,18/03/2022,A,COORDENACAO REGIONAL DO RIO NEGRO,POINT (-68.64485 0.304308333333),São Gabriel da Cachoeira,Amazonas,30202001885,0.30430833,-68.64485
aldeias_pontos.fid-8091ffc_197eb49b98a_2fd4,505,Aldeia Iterap,16201,1100122,,A,COORDENACAO REGIONAL DE JI PARANA,POINT (-61.7789166667 -10.6525833333),Ji-Paraná,Rondônia,30202001948,-10.65258333,-61.77891667
aldeias_pontos.fid-8091ffc_197eb49b98a_2fd5,4282,Aldeia Iwyter,1001,1506559,29/10/2020,A,COORDENACAO REGIONAL DO BAIXO TOCANTINS,POINT (-46.9866938889 -1.86195694444),Santa Luzia do Pará,Pará,30202001906,-1.86195694,-46.98669389
aldeias_pontos.fid-8091ffc_197eb49b98a_2fd6,5113,Aldeia Jorge Melo,31601,1100106,17/07/2023,A,COORDENACAO REGIONAL DE GUAJARA MIRIM,POINT (-65.1455055556 -11.6187638889),Guajará-Mirim,Rondônia,30202001941,-11.61876389,-65.14550556
aldeias_pontos.fid-8091ffc_197eb49b98a_2fd7,5261,Aldeia Kajywa (Linha 18C),16101,1100338,04/07/2025,A,COORDENACAO REGIONAL DE GUAJARA MIRIM,POINT (-65.0025 -10.443861111111),Nova Mamoré,Rondônia,30202001941,-10.44386111,-65.0025
aldeias_pontos.fid-8091ffc_197eb49b98a_2fd8,290,Aldeia Kalipety,28301,3548708,,A,COORDENACAO REGIONAL DE MINAS GERAIS E ESPIRITO SANTOS,POINT (-40.591547222222 -16.897366666667),São Bernardo do Campo,São Paulo,30202002067,-16.89736667,-40.59154722
aldeias_pontos.fid-8091ffc_197eb49b98a_2fd9,5083,Aldeia Kamkrokrok,50501,1500347,12/05/2023,A,COORDENACAO REGIONAL DO BAIXO TOCANTINS,POINT (-50.7610555556 -6.66641666667),Água Azul do Norte,Pará,30202001906,-6.66641667,-50.76105556
aldeias_pontos.fid-8091ffc_197eb49b98a_2fda,4200,Aldeia Kanindé,68301,5100805,10/07/2020,A,COORDENACAO REGIONAL NORTE DO MATO GROSSO,POINT (-58.2930555556 -8.14194444444),Apiacás,Mato Grosso,30202002039,-8.14194444,-58.29305556
aldeias_pontos.fid-8091ffc_197eb49b98a_2fdb,288,Aldeia Karay Rexakã (Brilho do Sol),23602,3548708,,A,COORDENACAO REGIONAL LITORAL SUDESTE,POINT (-46.684844444444 -23.933088888889),São Bernardo do Campo,São Paulo,30202002074,-23.93308889,-46.68484444
aldeias_pontos.fid-8091ffc_197eb49b98a_2fdc,5089,Aldeia Kenhõro,50501,1500347,12/05/2023,A,COORDENACAO REGIONAL DO BAIXO TOCANTINS,POINT (-50.6186111111 -6.68766666667),Água Azul do Norte,Pará,30202001906,-6.68766667,-50.61861111
aldeias_pontos.fid-8091ffc_197eb49b98a_2fdd,286,Aldeia Krucutu,23602,3550308,,A,COORDENACAO REGIONAL LITORAL SUDESTE,POINT (-46.650922222222 -23.899130555556),São Paulo,São Paulo,30202002074,-23.89913056,-46.65092222
aldeias_pontos.fid-8091ffc_197eb49b98a_2fde,5263,Aldeia Linha 27,16101,1100338,04/07/2025,A,COORDENACAO REGIONAL DE GUAJARA MIRIM,POINT (-64.831972222222 -10.427136111111),Nova Mamoré,Rondônia,30202001941,-10.42713611,-64.83197222
aldeias_pontos.fid-8091ffc_197eb49b98a_2fdf,4888,Aldeia Linha 8,16101,1100338,09/05/2022,A,COORDENACAO REGIONAL DE GUAJARA MIRIM,POINT (-65.1273277778 -10.4597555556),Nova Mamoré,Rondônia,30202001941,-10.45975556,-65.12732778
aldeias_pontos.fid-8091ffc_197eb49b98a_2fe0,3884,Aldeia Manain Tocwe - Linha 24 C.,16101,1100106,11/04/2019,A,COORDENACAO REGIONAL DE GUAJARA MIRIM,POINT (-64.8908583333 -10.4323777778),Guajará-Mirim,Rondônia,30202001941,-10.43237778,-64.89085833
aldeias_pontos.fid-8091ffc_197eb49b98a_2fe1,5111,Aldeia Mangueira,31601,1100106,14/07/2023,A,COORDENACAO REGIONAL DE GUAJARA MIRIM,POINT (-65.1455055556 -11.6187638889),Guajará-Mirim,Rondônia,30202001941,-11.61876389,-65.14550556
aldeias_pontos.fid-8091ffc_197eb49b98a_2fe2,4730,Aldeia Matapi Monte Alegre,1101,1303809,18/03/2022,A,COORDENACAO REGIONAL DO RIO NEGRO,POINT (-68.1727 0.0394694444444),São Gabriel da Cachoeira,Amazonas,30202001885,0.03946944,-68.1727
aldeias_pontos.fid-8091ffc_197eb49b98a_2fe3,4729,Aldeia Matapi do Tiquié,1101,1303809,18/03/2022,A,COORDENACAO REGIONAL DO RIO NEGRO,POINT (-68.6850055556 0.0295722222222),São Gabriel da Cachoeira,Amazonas,30202001885,0.02957222,-68.68500556
aldeias_pontos.fid-8091ffc_197eb49b98a_2fe4,4196,Aldeia Mayrowi,22902,5100805,10/07/2020,A,COORDENACAO REGIONAL NORTE DO MATO GROSSO,POINT (-57.8416666667 -7.95666666667),Apiacás,Mato Grosso,30202002039,-7.95666667,-57.84166667
aldeias_pontos.fid-8091ffc_197eb49b98a_2fe5,487,Aldeia Morro Pelado,38601,1101492,,A,COORDENACAO REGIONAL DE JI PARANA,POINT (-62.7316666667 -12.3358333333),São Francisco do Guaporé,Rondônia,30202001948,-12.33583333,-62.73166667
aldeias_pontos.fid-8091ffc_197eb49b98a_2fe6,4304,Aldeia Naurú,47301,1508001,25/05/2021,A,COORDENACAO REGIONAL DO BAIXO TOCANTINS,POINT (-48.3578333333 -2.28088055556),Tomé-Açu,Pará,30202001906,-2.28088056,-48.35783333
aldeias_pontos.fid-8091ffc_197eb49b98a_2fe7,483,Aldeia Nazaré,38601,1100320,,A,COORDENACAO REGIONAL DE JI PARANA,POINT (-62.6147222222 -12.0811111111),São Miguel do Guaporé,Rondônia,30202001948,-12.08111111,-62.61472222
aldeias_pontos.fid-8091ffc_197eb49b98a_2fe8,3921,Aldeia Nova,48201,1101005,07/06/2019,A,COORDENACAO REGIONAL DE JI PARANA,POINT (-62.9526111111 -10.8800277778),Governador Jorge Teixeira,Rondônia,30202001948,-10.88002778,-62.95261111
aldeias_pontos.fid-8091ffc_197eb49b98a_2fe9,4331,Aldeia Nova,5802,2925501,11/06/2021,A,COORDENACAO REGIONAL DO SUL DA BAHIA,POINT (-39.4149944444 -16.9153361111),Prado,Bahia,30202001990,-16.91533611,-39.41499444
aldeias_pontos.fid-8091ffc_197eb49b98a_2fea,807,Aldeia Nova,9701,2102002,24/10/2016,A,COORDENACAO REGIONAL MARANHÃO,POINT (-46.1080555556 -3.73083333333),Bom Jardim,Maranhão,30202001997,-3.73083333,-46.10805556
aldeias_pontos.fid-8091ffc_197eb49b98a_2feb,5197,Aldeia Nova Barbecho,24901,5106828,02/10/2023,A,COORDENACAO REGIONAL NORDESTE II,POINT (-59.159413833333 -16.274810444444),Porto Esperidião,Mato Grosso,30202001976,-16.27481044,-59.15941383
aldeias_pontos.fid-8091ffc_197eb49b98a_2fec,3895,Aldeia Nova Esperança.,16301,1100338,15/04/2019,A,COORDENACAO REGIONAL DE GUAJARA MIRIM,POINT (-65.1293333333 -10.3081722222),Nova Mamoré,Rondônia,30202001941,-10.30817222,-65.12933333
aldeias_pontos.fid-8091ffc_197eb49b98a_2fed,5104,Aldeia Oro At,31601,1100106,13/07/2023,A,COORDENACAO REGIONAL DE GUAJARA MIRIM,POINT (-65.0172222222 -11.1618583333),Guajará-Mirim,Rondônia,30202001941,-11.16185833,-65.01722222
aldeias_pontos.fid-8091ffc_197eb49b98a_2fee,488,Aldeia Palhal,38601,1101492,,A,COORDENACAO REGIONAL DE JI PARANA,POINT (-63.0205555556 -12.4077777778),São Francisco do Guaporé,Rondônia,30202001948,-12.40777778,-63.02055556
aldeias_pontos.fid-8091ffc_197eb49b98a_2fef,1337,Aldeia Pantanal,4201,5101407,10/04/2018,A,COORDENACAO REGIONAL NOROESTE DO MATO GROSSO,POINT (-59.8587111111 -10.0023722222),Aripuanã,Mato Grosso,30202002032,-10.00237222,-59.85871111
aldeias_pontos.fid-8091ffc_197eb49b98a_2ff0,494,"Aldeia Pereira \""Xibotigih\""",16201,1100122,,A,COORDENACAO REGIONAL DE JI PARANA,POINT (-61.5296666667 -10.7548611111),Ji-Paraná,Rondônia,30202001948,-10.75486111,-61.52966667
aldeias_pontos.fid-8091ffc_197eb49b98a_2ff1,4198,Aldeia Pirapitua,68301,5100805,10/07/2020,A,COORDENACAO REGIONAL NORTE DO MATO GROSSO,POINT (-58.175 -7.40833333333),Apiacás,Mato Grosso,30202002039,-7.40833333,-58.175
aldeias_pontos.fid-8091ffc_197eb49b98a_2ff2,5103,Aldeia Pitop,31601,1100106,13/07/2023,A,COORDENACAO REGIONAL DE GUAJARA MIRIM,POINT (-65.1756305556 -11.0448),Guajará-Mirim,Rondônia,30202001941,-11.0448,-65.17563056
aldeias_pontos.fid-8091ffc_197eb49b98a_2ff3,4513,Aldeia Pivi,42101,5106752,12/08/2021,A,COORDENACAO REGIONAL DE CUIABA,POINT (-59.4747083333 -14.9788805556),Pontes e Lacerda,Mato Grosso,30202002025,-14.97888056,-59.47470833
aldeias_pontos.fid-8091ffc_197eb49b98a_2ff4,4731,Aldeia Ponta de Pacu,1101,1303809,18/03/2022,A,COORDENACAO REGIONAL DO RIO NEGRO,POINT (-67.7707166667 0.148969444444),São Gabriel da Cachoeira,Amazonas,30202001885,0.14896944,-67.77071667
aldeias_pontos.fid-8091ffc_197eb49b98a_2ff5,4199,Aldeia Pontal,68301,5100805,10/07/2020,A,COORDENACAO REGIONAL NORTE DO MATO GROSSO,POINT (-58.2852777778 -8.10083333333),Apiacás,Mato Grosso,30202002039,-8.10083333,-58.28527778
aldeias_pontos.fid-8091ffc_197eb49b98a_2ff6,486,Aldeia Porto  Estaleiro,38601,1101492,,A,COORDENACAO REGIONAL DE JI PARANA,POINT (-62.7316666667 -12.335),São Francisco do Guaporé,Rondônia,30202001948,-12.335,-62.73166667
aldeias_pontos.fid-8091ffc_197eb49b98a_2ff7,5101,Aldeia Poção,31601,1100106,07/07/2023,A,COORDENACAO REGIONAL DE GUAJARA MIRIM,POINT (-65.2034527778 -11.0194305556),Guajará-Mirim,Rondônia,30202001941,-11.01943056,-65.20345278
aldeias_pontos.fid-8091ffc_197eb49b98a_2ff8,5085,Aldeia Pratinhõpyre,50501,1500347,12/05/2023,A,COORDENACAO REGIONAL DO BAIXO TOCANTINS,POINT (-51.0585555556 -6.5285),Água Azul do Norte,Pará,30202001906,-6.5285,-51.05855556
aldeias_pontos.fid-8091ffc_197eb49b98a_2ff9,5045,Aldeia Primavera,38601,1101492,30/11/2022,A,COORDENACAO REGIONAL DE JI PARANA,POINT (-62.6794444444 -11.9644444444),São Francisco do Guaporé,Rondônia,30202001948,-11.96444444,-62.67944444
aldeias_pontos.fid-8091ffc_197eb49b98a_2ffa,5086,Aldeia Pykatiokrãnh,50501,1500347,12/05/2023,A,COORDENACAO REGIONAL DO BAIXO TOCANTINS,POINT (-50.4968611111 -6.50013888889),Água Azul do Norte,Pará,30202001906,-6.50013889,-50.49686111
aldeias_pontos.fid-8091ffc_197eb49b98a_2ffb,4928,Aldeia Renascer,27401,1301100,24/05/2022,A,COORDENACAO REGIONAL DE MANAUS,POINT (-59.8363888889 -3.61694444444),Careiro,Amazonas,30202001871,-3.61694444,-59.83638889
aldeias_pontos.fid-8091ffc_197eb49b98a_2ffc,4511,Aldeia Retiro,64701,2305506,04/08/2021,A,COORDENACAO REGIONAL NORDESTE II,POINT (-39.3572222222 -6.23027777778),Iguatu,Ceará,30202001976,-6.23027778,-39.35722222
aldeias_pontos.fid-8091ffc_197eb49b98a_2ffd,3896,Aldeia Ribeirão.,16301,1100338,15/04/2019,A,COORDENACAO REGIONAL DE GUAJARA MIRIM,POINT (-65.1397972222 -10.2986888889),Nova Mamoré,Rondônia,30202001941,-10.29868889,-65.13979722
aldeias_pontos.fid-8091ffc_197eb49b98a_2ffe,1339,Aldeia Rio Preto,4201,5101407,10/04/2018,A,COORDENACAO REGIONAL NOROESTE DO MATO GROSSO,POINT (-59.71135 -10.1325),Aripuanã,Mato Grosso,30202002032,-10.1325,-59.71135
aldeias_pontos.fid-8091ffc_197eb49b98a_2fff,1340,Aldeia Rio Preto I,4201,5101407,10/04/2018,A,COORDENACAO REGIONAL NOROESTE DO MATO GROSSO,POINT (-59.7729027778 -10.2224444444),Aripuanã,Mato Grosso,30202002032,-10.22244444,-59.77290278
aldeias_pontos.fid-8091ffc_197eb49b98a_3000,4287,Aldeia Santa Maria,70201,2610905,16/03/2021,A,COORDENACAO REGIONAL NORDESTE I,POINT (-36.8235 -8.4105),Pesqueira,Pernambuco,30202001969,-8.4105,-36.8235
aldeias_pontos.fid-8091ffc_197eb49b98a_3001,4732,Aldeia Santa Terezinha,1101,1303809,18/03/2022,A,COORDENACAO REGIONAL DO RIO NEGRO,POINT (-68.5295416667 0.565547222222),São Gabriel da Cachoeira,Amazonas,30202001885,0.56554722,-68.52954167
aldeias_pontos.fid-8091ffc_197eb49b98a_3002,2881,Aldeia Santo André,31601,1100106,06/08/2018,A,COORDENACAO REGIONAL DE GUAJARA MIRIM,POINT (-65.0169333333 -11.1623972222),Guajará-Mirim,Rondônia,30202001941,-11.16239722,-65.01693333
aldeias_pontos.fid-8091ffc_197eb49b98a_3003,5025,Aldeia Santo André II,31601,1100106,22/08/2022,A,COORDENACAO REGIONAL DE GUAJARA MIRIM,POINT (-65.0166666667 -11.1630555556),Guajará-Mirim,Rondônia,30202001941,-11.16305556,-65.01666667
aldeias_pontos.fid-8091ffc_197eb49b98a_3004,5023,Aldeia Santo Antônio,31601,1100106,22/08/2022,A,COORDENACAO REGIONAL DE GUAJARA MIRIM,POINT (-65.1636111111 -11.0566666667),Guajará-Mirim,Rondônia,30202001941,-11.05666667,-65.16361111
aldeias_pontos.fid-8091ffc_197eb49b98a_3005,5100,Aldeia Sapezal,31601,1100106,07/07/2023,A,COORDENACAO REGIONAL DE GUAJARA MIRIM,POINT (-65.1510277778 -11.6327277778),Guajará-Mirim,Rondônia,30202001941,-11.63272778,-65.15102778
aldeias_pontos.fid-8091ffc_197eb49b98a_3006,611,Aldeia Sede,12701,3113800,,A,COORDENACAO REGIONAL DE MINAS GERAIS E ESPIRITO SANTOS,POINT (-43.1162333333 -19.0372305556),Carmésia,Minas Gerais,30202002067,-19.03723056,-43.11623333
aldeias_pontos.fid-8091ffc_197eb49b98a_3007,1076,Aldeia Sem Nome,50901,1400050,14/03/2017,A,COORDENACAO REGIONAL DE RORAIMA,POINT (-63.7095305556 2.67939444444),Alto Alegre,Roraima,30202001955,2.67939444,-63.70953056
aldeias_pontos.fid-8091ffc_197eb49b98a_3008,1161,Aldeia Sem Nome,50901,1400027,14/03/2017,A,COORDENACAO REGIONAL DE RORAIMA,POINT (-62.522605549 3.8265543150001),Amajari,Roraima,30202001955,3.82655432,-62.52260555
aldeias_pontos.fid-8091ffc_197eb49b98a_3009,1177,Aldeia Sem Nome,50901,1303601,14/03/2017,A,COORDENACAO REGIONAL DE RORAIMA,POINT (-65.320505127 0.61570961600006),Santa Isabel do Rio Negro,Amazonas,30202001955,0.61570962,-65.32050513
aldeias_pontos.fid-8091ffc_197eb49b98a_300a,1159,Aldeia Sem Nome,50901,1400027,14/03/2017,A,COORDENACAO REGIONAL DE RORAIMA,POINT (-62.315889874 3.5236191860001),Amajari,Roraima,30202001955,3.52361919,-62.31588987
aldeias_pontos.fid-8091ffc_197eb49b98a_300b,1158,Aldeia Sem Nome,50901,1400027,14/03/2017,A,COORDENACAO REGIONAL DE RORAIMA,POINT (-62.398278711 3.6281667540001),Amajari,Roraima,30202001955,3.62816675,-62.39827871
aldeias_pontos.fid-8091ffc_197eb49b98a_300c,1182,Aldeia Sem Nome,50901,1400027,14/03/2017,A,COORDENACAO REGIONAL DE RORAIMA,POINT (-64.418285337 4.0381748070001),Amajari,Roraima,30202001955,4.03817481,-64.41828534
aldeias_pontos.fid-8091ffc_197eb49b98a_300d,1081,Aldeia Sem Nome,50901,1300409,14/03/2017,A,COORDENACAO REGIONAL DE RORAIMA,POINT (-64.062 1.4648),Barcelos,Amazonas,30202001955,1.4648,-64.062
aldeias_pontos.fid-8091ffc_197eb49b98a_300e,1090,Aldeia Sem Nome,50901,1400308,14/03/2017,A,COORDENACAO REGIONAL DE RORAIMA,POINT (-61.78770635 2.49165874),Mucajaí,Roraima,30202001955,2.49165874,-61.78770635
aldeias_pontos.fid-8091ffc_197eb49b98a_300f,1087,Aldeia Sem Nome,50901,1400308,14/03/2017,A,COORDENACAO REGIONAL DE RORAIMA,POINT (-62.387836668 2.7771498080001),Mucajaí,Roraima,30202001955,2.77714981,-62.38783667
aldeias_pontos.fid-8091ffc_197eb49b98a_3010,1166,Aldeia Sem Nome,50901,1400282,14/03/2017,A,COORDENACAO REGIONAL DE RORAIMA,POINT (-63.47156635 2.705034449),Iracema,Roraima,30202001955,2.70503445,-63.47156635
aldeias_pontos.fid-8091ffc_197eb49b98a_3011,1105,Aldeia Sem Nome,50901,1400027,14/03/2017,A,COORDENACAO REGIONAL DE RORAIMA,POINT (-64.170451664 3.835031734),Amajari,Roraima,30202001955,3.83503173,-64.17045166
aldeias_pontos.fid-8091ffc_197eb49b98a_3012,1082,Aldeia Sem Nome,50901,1300409,14/03/2017,A,COORDENACAO REGIONAL DE RORAIMA,POINT (-64.18885 1.4377666670001),Barcelos,Amazonas,30202001955,1.43776667,-64.18885
aldeias_pontos.fid-8091ffc_197eb49b98a_3013,1167,Aldeia Sem Nome,50901,1400282,14/03/2017,A,COORDENACAO REGIONAL DE RORAIMA,POINT (-63.4720694444 2.71587777778),Iracema,Roraima,30202001955,2.71587778,-63.47206944
aldeias_pontos.fid-8091ffc_197eb49b98a_3014,1168,Aldeia Sem Nome,50901,1400282,14/03/2017,A,COORDENACAO REGIONAL DE RORAIMA,POINT (-63.458699494 2.7846790890001),Iracema,Roraima,30202001955,2.78467909,-63.45869949
aldeias_pontos.fid-8091ffc_197eb49b98a_3015,1169,Aldeia Sem Nome,50901,1400282,14/03/2017,A,COORDENACAO REGIONAL DE RORAIMA,POINT (-63.459397321 2.7781876760001),Iracema,Roraima,30202001955,2.77818768,-63.45939732
aldeias_pontos.fid-8091ffc_197eb49b98a_3016,1165,Aldeia Sem Nome,50901,1400282,14/03/2017,A,COORDENACAO REGIONAL DE RORAIMA,POINT (-63.472005879 2.6972946880001),Iracema,Roraima,30202001955,2.69729469,-63.47200588
aldeias_pontos.fid-8091ffc_197eb49b98a_3017,1164,Aldeia Sem Nome,50901,1400282,14/03/2017,A,COORDENACAO REGIONAL DE RORAIMA,POINT (-63.4670111111 2.68082222222),Iracema,Roraima,30202001955,2.68082222,-63.46701111
aldeias_pontos.fid-8091ffc_197eb49b98a_3018,1163,Aldeia Sem Nome,50901,1400282,14/03/2017,A,COORDENACAO REGIONAL DE RORAIMA,POINT (-63.4698083333 2.68885833333),Iracema,Roraima,30202001955,2.68885833,-63.46980833
aldeias_pontos.fid-8091ffc_197eb49b98a_3019,1160,Aldeia Sem Nome,50901,1400027,14/03/2017,A,COORDENACAO REGIONAL DE RORAIMA,POINT (-62.483344443 3.8014212580001),Amajari,Roraima,30202001955,3.80142126,-62.48334444
aldeias_pontos.fid-8091ffc_197eb49b98a_301a,1089,Aldeia Sem Nome,50901,1400050,14/03/2017,A,COORDENACAO REGIONAL DE RORAIMA,POINT (-62.668606922 2.709218805),Alto Alegre,Roraima,30202001955,2.7092188,-62.66860692
aldeias_pontos.fid-8091ffc_197eb49b98a_301b,1162,Aldeia Sem Nome,50901,1400050,14/03/2017,A,COORDENACAO REGIONAL DE RORAIMA,POINT (-63.5018666667 2.67541944444),Alto Alegre,Roraima,30202001955,2.67541944,-63.50186667
aldeias_pontos.fid-8091ffc_197eb49b98a_301c,1083,Aldeia Sem Nome,50901,1300409,14/03/2017,A,COORDENACAO REGIONAL DE RORAIMA,POINT (-64.0067 1.417666667),Barcelos,Amazonas,30202001955,1.41766667,-64.0067
aldeias_pontos.fid-8091ffc_197eb49b98a_301d,1170,Aldeia Sem Nome,50901,1400050,14/03/2017,A,COORDENACAO REGIONAL DE RORAIMA,POINT (-63.498295429 2.766203529),Alto Alegre,Roraima,30202001955,2.76620353,-63.49829543
aldeias_pontos.fid-8091ffc_197eb49b98a_301e,895,Aldeia Sem Nome,50901,1400050,14/03/2017,A,COORDENACAO REGIONAL DE RORAIMA,POINT (-63.770034661 2.785440984),Alto Alegre,Roraima,30202001955,2.78544098,-63.77003466
aldeias_pontos.fid-8091ffc_197eb49b98a_301f,899,Aldeia Sem Nome,50901,1400050,14/03/2017,A,COORDENACAO REGIONAL DE RORAIMA,POINT (-63.763171799 2.885559437),Alto Alegre,Roraima,30202001955,2.88555944,-63.7631718
aldeias_pontos.fid-8091ffc_197eb49b98a_3020,1068,Aldeia Sem Nome,50901,1400050,14/03/2017,A,COORDENACAO REGIONAL DE RORAIMA,POINT (-63.546616667 2.7245833330001),Alto Alegre,Roraima,30202001955,2.72458333,-63.54661667
aldeias_pontos.fid-8091ffc_197eb49b98a_3021,894,Aldeia Sem Nome,50901,1400050,14/03/2017,A,COORDENACAO REGIONAL DE RORAIMA,POINT (-63.690550012 2.861016679),Alto Alegre,Roraima,30202001955,2.86101668,-63.69055001
aldeias_pontos.fid-8091ffc_197eb49b98a_3022,1085,Aldeia Sem Nome,50901,1400050,14/03/2017,A,COORDENACAO REGIONAL DE RORAIMA,POINT (-63.908 3.2907500000001),Alto Alegre,Roraima,30202001955,3.29075,-63.908
aldeias_pontos.fid-8091ffc_197eb49b98a_3023,893,Aldeia Sem Nome,50901,1400050,14/03/2017,A,COORDENACAO REGIONAL DE RORAIMA,POINT (-63.700073577 2.869477411),Alto Alegre,Roraima,30202001955,2.86947741,-63.70007358
aldeias_pontos.fid-8091ffc_197eb49b98a_3024,898,Aldeia Sem Nome,50901,1400050,14/03/2017,A,COORDENACAO REGIONAL DE RORAIMA,POINT (-63.721373921 2.8610044490001),Alto Alegre,Roraima,30202001955,2.86100445,-63.72137392
aldeias_pontos.fid-8091ffc_197eb49b98a_3025,1171,Aldeia Sem Nome,50901,1400050,14/03/2017,A,COORDENACAO REGIONAL DE RORAIMA,POINT (-63.515071518 2.738490191),Alto Alegre,Roraima,30202001955,2.73849019,-63.51507152
aldeias_pontos.fid-8091ffc_197eb49b98a_3026,1069,Aldeia Sem Nome,50901,1400050,14/03/2017,A,COORDENACAO REGIONAL DE RORAIMA,POINT (-63.554666667 2.726866667),Alto Alegre,Roraima,30202001955,2.72686667,-63.55466667
aldeias_pontos.fid-8091ffc_197eb49b98a_3027,1071,Aldeia Sem Nome,50901,1400050,14/03/2017,A,COORDENACAO REGIONAL DE RORAIMA,POINT (-63.568883333 2.685233333),Alto Alegre,Roraima,30202001955,2.68523333,-63.56888333
aldeias_pontos.fid-8091ffc_197eb49b98a_3028,1074,Aldeia Sem Nome,50901,1400050,14/03/2017,A,COORDENACAO REGIONAL DE RORAIMA,POINT (-63.746983333 2.6870500000001),Alto Alegre,Roraima,30202001955,2.68705,-63.74698333
aldeias_pontos.fid-8091ffc_197eb49b98a_3029,4512,Aldeia Serra da Borda,42101,5103361,12/08/2021,A,COORDENACAO REGIONAL DE CUIABA,POINT (-59.5558444444 -14.7943138889),Conquista D'Oeste,Mato Grosso,30202002025,-14.79431389,-59.55584444
aldeias_pontos.fid-8091ffc_197eb49b98a_302a,481,Aldeia Serrinha,38601,1100015,,A,COORDENACAO REGIONAL DE JI PARANA,POINT (-62.5377777778 -12.0461111111),Alta Floresta D´Oeste,Rondônia,30202001948,-12.04611111,-62.53777778
aldeias_pontos.fid-8091ffc_197eb49b98a_302b,2882,Aldeia Sotério,31601,1100106,06/08/2018,A,COORDENACAO REGIONAL DE GUAJARA MIRIM,POINT (-65.1337805556 -11.6157222222),Guajará-Mirim,Rondônia,30202001941,-11.61572222,-65.13378056
aldeias_pontos.fid-8091ffc_197eb49b98a_302c,4734,Aldeia Sussuaca,1101,1303809,18/03/2022,A,COORDENACAO REGIONAL DO RIO NEGRO,POINT (-68.2362555556 0.236255555556),São Gabriel da Cachoeira,Amazonas,30202001885,0.23625556,-68.23625556
aldeias_pontos.fid-8091ffc_197eb49b98a_302d,5106,Aldeia São João,31601,1100106,13/07/2023,A,COORDENACAO REGIONAL DE GUAJARA MIRIM,POINT (-65.1455055556 -11.6187638889),Guajará-Mirim,Rondônia,30202001941,-11.61876389,-65.14550556
aldeias_pontos.fid-8091ffc_197eb49b98a_302e,479,Aldeia São Luiz,38601,1100015,,A,COORDENACAO REGIONAL DE JI PARANA,POINT (-62.4880555556 -12.0047222222),Alta Floresta D´Oeste,Rondônia,30202001948,-12.00472222,-62.48805556
aldeias_pontos.fid-8091ffc_197eb49b98a_302f,4733,Aldeia São Pedro,1101,1303809,18/03/2022,A,COORDENACAO REGIONAL DO RIO NEGRO,POINT (-67.8192388889 0.141661111111),São Gabriel da Cachoeira,Amazonas,30202001885,0.14166111,-67.81923889
aldeias_pontos.fid-8091ffc_197eb49b98a_3030,3922,Aldeia São luis,48201,1100106,07/06/2019,A,COORDENACAO REGIONAL DE JI PARANA,POINT (-64.0802388889 -11.0872361111),Guajará-Mirim,Rondônia,30202001948,-11.08723611,-64.08023889
aldeias_pontos.fid-8091ffc_197eb49b98a_3031,5264,Aldeia Sítio Nova Xavantina,16101,1100106,07/07/2025,A,COORDENACAO REGIONAL DE GUAJARA MIRIM,POINT (-65.178341666667 -11.306677777778),Guajará-Mirim,Rondônia,30202001941,-11.30667778,-65.17834167
aldeias_pontos.fid-8091ffc_197eb49b98a_3032,5260,Aldeia Sítio do Cacau,16101,1100338,04/07/2025,A,COORDENACAO REGIONAL DE GUAJARA MIRIM,POINT (-65.281857777778 -10.532451666667),Nova Mamoré,Rondônia,30202001941,-10.53245167,-65.28185778
aldeias_pontos.fid-8091ffc_197eb49b98a_3033,3907,Aldeia Tanajura,31601,1100106,23/04/2019,A,COORDENACAO REGIONAL DE GUAJARA MIRIM,POINT (-65.1756305556 -11.0448),Guajará-Mirim,Rondônia,30202001941,-11.0448,-65.17563056
aldeias_pontos.fid-8091ffc_197eb49b98a_3034,4201,Aldeia Tonhore,9201,5106422,13/07/2020,A,COORDENACAO REGIONAL NORTE DO MATO GROSSO,POINT (-53.0897222222 -10.5844444444),Peixoto de Azevedo,Mato Grosso,30202002039,-10.58444444,-53.08972222
aldeias_pontos.fid-8091ffc_197eb49b98a_3035,4290,Aldeia Torão,70201,2616001,16/03/2021,A,COORDENACAO REGIONAL NORDESTE I,POINT (-36.83 -8.4525),Venturosa,Pernambuco,30202001969,-8.4525,-36.83
aldeias_pontos.fid-8091ffc_197eb49b98a_3036,4197,Aldeia Três Marias,68301,5100805,10/07/2020,A,COORDENACAO REGIONAL NORTE DO MATO GROSSO,POINT (-57.9449694444 -7.64983333333),Apiacás,Mato Grosso,30202002039,-7.64983333,-57.94496944
aldeias_pontos.fid-8091ffc_197eb49b98a_3037,295,Aldeia Tupã,8301,1301209,,A,COORDENACAO REGIONAL DE MANAUS,POINT (-63.3663888889 -3.92972222222),Coari,Amazonas,30202001871,-3.92972222,-63.36638889
aldeias_pontos.fid-8091ffc_197eb49b98a_3038,2940,Aldeia Tuxá/Fazenda Sítio,69901,2902658,21/08/2018,A,COORDENACAO REGIONAL BAIXO SÃO FRANCISCO,POINT (-38.7210555556 -10.6114444444),Banzaê,Bahia,30202001983,-10.61144444,-38.72105556
aldeias_pontos.fid-8091ffc_197eb49b98a_3039,493,Aldeia Uhy,16201,1100122,,A,COORDENACAO REGIONAL DE JI PARANA,POINT (-61.4989166667 -10.7655555556),Ji-Paraná,Rondônia,30202001948,-10.76555556,-61.49891667
aldeias_pontos.fid-8091ffc_197eb49b98a_303a,4735,Aldeia Uoriri,1101,1303809,18/03/2022,A,COORDENACAO REGIONAL DO RIO NEGRO,POINT (-67.9447111111 0.175313888889),São Gabriel da Cachoeira,Amazonas,30202001885,0.17531389,-67.94471111
aldeias_pontos.fid-8091ffc_197eb49b98a_303b,4727,Aldeia Urubuquara,1101,1303809,18/03/2022,A,COORDENACAO REGIONAL DO RIO NEGRO,POINT (-68.6690555556 0.303619444444),São Gabriel da Cachoeira,Amazonas,30202001885,0.30361944,-68.66905556
aldeias_pontos.fid-8091ffc_197eb49b98a_303c,5080,Aldeia Urucurituba,19301,1300300,02/05/2023,A,COORDENACAO REGIONAL DE MANAUS,POINT (-58.9298033333 -3.54857666667),Autazes,Amazonas,30202001871,-3.54857667,-58.92980333
aldeias_pontos.fid-8091ffc_197eb49b98a_303d,4388,Aldeia Velha,901,2925303,21/06/2021,A,COORDENACAO REGIONAL DO SUL DA BAHIA,POINT (-39.0856472222 -16.4771805556),Porto Seguro,Bahia,30202001990,-16.47718056,-39.08564722
aldeias_pontos.fid-8091ffc_197eb49b98a_303e,3583,Aldeia Verde (APNE YĨXUX),65701,3137007,25/10/2018,A,COORDENACAO REGIONAL DE MINAS GERAIS E ESPIRITO SANTOS,POINT (-41.6661472222 -17.6503138889),Ladainha,Minas Gerais,30202002067,-17.65031389,-41.66614722
aldeias_pontos.fid-8091ffc_197eb49b98a_303f,4736,Aldeia Vila Nova,1101,1303809,18/03/2022,A,COORDENACAO REGIONAL DO RIO NEGRO,POINT (-68.8999861111 0.0902527777778),São Gabriel da Cachoeira,Amazonas,30202001885,0.09025278,-68.89998611
aldeias_pontos.fid-8091ffc_197eb49b98a_3040,291,Aldeia Yrexekã,28301,3548708,,A,COORDENACAO REGIONAL DE MINAS GERAIS E ESPIRITO SANTOS,POINT (-40.592841666667 -16.898463888889),São Bernardo do Campo,São Paulo,30202002067,-16.89846389,-40.59284167
aldeias_pontos.fid-8091ffc_197eb49b98a_3041,5072,Aldeia Yy Retxakã,8003,3201803,07/03/2023,A,COORDENACAO REGIONAL DE MINAS GERAIS E ESPIRITO SANTOS,POINT (-41.7891666667 -20.5975),Divino de São Lourenço,Espírito Santo,30202002067,-20.5975,-41.78916667
aldeias_pontos.fid-8091ffc_197eb49b98a_3042,492,"Aldeia Zezinho \""Galapaá\""",16201,1100122,,A,COORDENACAO REGIONAL DE JI PARANA,POINT (-61.4955833333 -10.7641944444),Ji-Paraná,Rondônia,30202001948,-10.76419444,-61.49558333
aldeias_pontos.fid-8091ffc_197eb49b98a_3043,495,"Aldeia \"" Mahvguveirj\""",16201,1100122,,A,COORDENACAO REGIONAL DE JI PARANA,POINT (-61.5319444444 -10.7604722222),Ji-Paraná,Rondônia,30202001948,-10.76047222,-61.53194444
aldeias_pontos.fid-8091ffc_197eb49b98a_3044,497,"Aldeia \""Manikito\""",16201,1100122,,A,COORDENACAO REGIONAL DE JI PARANA,POINT (-61.5661388889 -10.7463055556),Ji-Paraná,Rondônia,30202001948,-10.74630556,-61.56613889
aldeias_pontos.fid-8091ffc_197eb49b98a_3045,496,"Aldeia \""Padaé\""",16201,1100122,,A,COORDENACAO REGIONAL DE JI PARANA,POINT (-61.5580833333 -10.7744722222),Ji-Paraná,Rondônia,30202001948,-10.77447222,-61.55808333
aldeias_pontos.fid-8091ffc_197eb49b98a_3046,4692,Aldeia da Calada,62501,1506807,10/01/2022,A,COORDENACAO REGIONAL DE TAPAJOS,POINT (-54.5375 -2.58833333333),Santarém,Pará,30202001927,-2.58833333,-54.5375
aldeias_pontos.fid-8091ffc_197eb49b98a_3047,3893,Aldeia da Linha XX.,16301,1100338,15/04/2019,A,COORDENACAO REGIONAL DE GUAJARA MIRIM,POINT (-64.9734388889 -10.3598277778),Nova Mamoré,Rondônia,30202001941,-10.35982778,-64.97343889
aldeias_pontos.fid-8091ffc_197eb49b98a_3048,3903,Aldeia da Linha XXVI.,16101,1100106,22/04/2019,A,COORDENACAO REGIONAL DE GUAJARA MIRIM,POINT (-64.852925 -10.4299888889),Guajará-Mirim,Rondônia,30202001941,-10.42998889,-64.852925
aldeias_pontos.fid-8091ffc_197eb49b98a_3049,5114,Aldeia do Igarapé Pinga,31601,1100106,17/07/2023,A,COORDENACAO REGIONAL DE GUAJARA MIRIM,POINT (-65.1455055556 -11.6187638889),Guajará-Mirim,Rondônia,30202001941,-11.61876389,-65.14550556
aldeias_pontos.fid-8091ffc_197eb49b98a_304a,503,Aldeia do Pedro Pay Gap,16201,1100122,,A,COORDENACAO REGIONAL DE JI PARANA,POINT (-61.6559722222 -10.71475),Ji-Paraná,Rondônia,30202001948,-10.71475,-61.65597222
aldeias_pontos.fid-8091ffc_197eb49b98a_304b,491,Aldeia ingazeira Bolirapé Vaá,16201,1100122,,A,COORDENACAO REGIONAL DE JI PARANA,POINT (-61.646 -10.4305666667),Ji-Paraná,Rondônia,30202001948,-10.43056667,-61.646
aldeias_pontos.fid-8091ffc_197eb49b98a_304c,1228,Aldeinha,38701,3522109,09/08/2017,A,COORDENACAO REGIONAL LITORAL SUDESTE,POINT (-46.8383194444 -24.1721527778),Itanhaém,São Paulo,30202002074,-24.17215278,-46.83831944
aldeias_pontos.fid-8091ffc_197eb49b98a_304d,4348,Alegria Nova,65101,2925501,11/06/2021,A,COORDENACAO REGIONAL DO SUL DA BAHIA,POINT (-39.2694222222 -16.9999916667),Prado,Bahia,30202001990,-16.99999167,-39.26942222
aldeias_pontos.fid-8091ffc_197eb49b98a_304e,67,Algodão,33601,5105150,,A,COORDENACAO REGIONAL NOROESTE DO MATO GROSSO,POINT (-59.5 -11.516944444444),Juína,Mato Grosso,30202002032,-11.51694444,-59.5
aldeias_pontos.fid-8091ffc_197eb49b98a_304f,5164,Almécegas (Almescas),64601,2201150,29/08/2023,A,COORDENACAO REGIONAL NORDESTE II,POINT (-44.9996555556 -8.01028611111),Baixa Grande do Ribeiro,Piauí,30202001976,-8.01028611,-44.99965556
aldeias_pontos.fid-8091ffc_197eb49b98a_3050,3347,Altamira,22801,1200328,18/09/2018,A,COORDENACAO REGIONAL DO JURUÁ,POINT (-71.9161577222 -9.27835894444),Jordão,Acre,30202001852,-9.27835894,-71.91615772
aldeias_pontos.fid-8091ffc_197eb49b98a_3051,4042,Altamira,64701,2304103,30/04/2020,A,COORDENACAO REGIONAL NORDESTE II,POINT (-40.6797777778 -5.17348055556),Crateús,Ceará,30202001976,-5.17348056,-40.67977778
aldeias_pontos.fid-8091ffc_197eb49b98a_3052,4894,Alto Alegre,54601,2303709,12/05/2022,A,COORDENACAO REGIONAL NORDESTE II,POINT (-38.693 -3.70288888889),Caucaia,Ceará,30202001976,-3.70288889,-38.693
aldeias_pontos.fid-8091ffc_197eb49b98a_3053,361,Alto Bonito,18301,1200302,,A,COORDENACAO REGIONAL DO JURUÁ,POINT (-71.0148838889 -9.355685),Feijó,Acre,30202001852,-9.355685,-71.01488389
aldeias_pontos.fid-8091ffc_197eb49b98a_3054,4291,Alto Recreio,42701,4316105,19/03/2021,A,COORDENACAO REGIONAL DE PASSO FUNDO,POINT (-52.8400833333 -27.6802083333),Ronda Alta,Rio Grande do Sul,30202002081,-27.68020833,-52.84008333
aldeias_pontos.fid-8091ffc_197eb49b98a_3055,4163,Alto da Glória,33801,5107859,10/06/2020,A,COORDENACAO REGIONAL DO XINGU,POINT (-53.274616666667 -11.068588888889),São Félix do Araguaia,Mato Grosso,30202002060,-11.06858889,-53.27461667
aldeias_pontos.fid-8091ffc_197eb49b98a_3056,4415,Alto do Aratú,71101,2303709,25/06/2021,A,COORDENACAO REGIONAL NORDESTE II,POINT (-38.7061111111 -3.69027777778),Caucaia,Ceará,30202001976,-3.69027778,-38.70611111
aldeias_pontos.fid-8091ffc_197eb49b98a_3057,4924,Alto do Garrote,71101,2303709,20/05/2022,A,COORDENACAO REGIONAL NORDESTE II,POINT (-38.7030555556 -3.69036111111),Caucaia,Ceará,30202001976,-3.69036111,-38.70305556
aldeias_pontos.fid-8091ffc_197eb49b98a_3058,4317,Alto do Tambá,36901,2501401,27/05/2021,A,COORDENACAO REGIONAL DE JOAO PESSOA,POINT (-34.9675116667 -6.657028),Baía da Traição,Paraíba,30202002287,-6.657028,-34.96751167
aldeias_pontos.fid-8091ffc_197eb49b98a_3059,1194,Alvorada,27201,5106307,09/06/2017,A,COORDENACAO REGIONAL XAVANTE,POINT (-54.0522222222 -14.1672222222),Paranatinga,Mato Grosso,30202002053,-14.16722222,-54.05222222
aldeias_pontos.fid-8091ffc_197eb49b98a_305a,1099,AmahikÉ¨,50901,1300409,14/03/2017,A,COORDENACAO REGIONAL DE RORAIMA,POINT (-63.734303106 1.972535293),Barcelos,Amazonas,30202001955,1.97253529,-63.73430311
aldeias_pontos.fid-8091ffc_197eb49b98a_305b,174,Amaná,33701,1505106,,A,COORDENACAO REGIONAL AMAPÁ E NORTE DO PARÁ,POINT (-55.947508333333 2.210525),Óbidos,Pará,30202001899,2.210525,-55.94750833
aldeias_pontos.fid-8091ffc_197eb49b98a_305c,4061,Amarelão,73726,2405801,05/05/2020,A,COORDENACAO REGIONAL NORDESTE II,POINT (-35.9042111111 -5.51403611111),João Câmara,Rio Grande do Norte,30202001976,-5.51403611,-35.90421111
aldeias_pontos.fid-8091ffc_197eb49b98a_305d,4641,Amassurara,62501,1506807,07/01/2022,A,COORDENACAO REGIONAL DE TAPAJOS,POINT (-55.185 -2.73666666667),Santarém,Pará,30202001927,-2.73666667,-55.185
aldeias_pontos.fid-8091ffc_197eb49b98a_305e,4668,Aminã,59401,1506807,07/01/2022,A,COORDENACAO REGIONAL DE TAPAJOS,POINT (-55.2380555556 -2.56166666667),Santarém,Pará,30202001927,-2.56166667,-55.23805556
aldeias_pontos.fid-8091ffc_197eb49b98a_305f,4689,Amparador,62501,1506807,10/01/2022,A,COORDENACAO REGIONAL DE TAPAJOS,POINT (-54.5308333333 -2.62555555556),Santarém,Pará,30202001927,-2.62555556,-54.53083333
aldeias_pontos.fid-8091ffc_197eb49b98a_3060,339,Amparo,39402,1200609,,A,COORDENACAO REGIONAL DO JURUÁ,POINT (-71.6410833333 -8.17605555556),Tarauacá,Acre,30202001852,-8.17605556,-71.64108333
aldeias_pontos.fid-8091ffc_197eb49b98a_3061,5,Anambé,1801,1504703,,A,COORDENACAO REGIONAL DO BAIXO TOCANTINS,POINT (-49.350694444444 -2.8459722222222),Moju,Pará,30202001906,-2.84597222,-49.35069444
aldeias_pontos.fid-8091ffc_197eb49b98a_3062,4845,Ananai,7301,1200054,04/04/2022,A,COORDENACAO REGIONAL ALTO PURUS,POINT (-69.8675722222 -10.9245111111),Assis Brasil,Acre,30202001845,-10.92451111,-69.86757222
aldeias_pontos.fid-8091ffc_197eb49b98a_3063,1154,Ananariu,50901,1300409,14/03/2017,A,COORDENACAO REGIONAL DE RORAIMA,POINT (-63.0471694444 1.37023611111),Barcelos,Amazonas,30202001955,1.37023611,-63.04716944
aldeias_pontos.fid-8091ffc_197eb49b98a_3064,4567,Anapiwi,38902,1500602,18/08/2021,A,COORDENACAO REGIONAL CENTRO-LESTE DO PARÁ,POINT (-54.5046944444 -5.71925),Altamira,Pará,30202001913,-5.71925,-54.50469444
aldeias_pontos.fid-8091ffc_197eb49b98a_3065,5196,Anebá,40501,1301902,27/09/2023,A,COORDENACAO REGIONAL DE MANAUS,POINT (-58.702166666667 -3.0162222222222),Itacoatiara,Amazonas,30202001871,-3.01622222,-58.70216667
aldeias_pontos.fid-8091ffc_197eb49b98a_3066,506,Anguj Tapua,51101,1100122,,A,COORDENACAO REGIONAL DE JI PARANA,POINT (-61.1185194444 -10.6501361111),Ji-Paraná,Rondônia,30202001948,-10.65013611,-61.11851944
aldeias_pontos.fid-8091ffc_197eb49b98a_3067,4669,Aningalzinho,59401,1506807,07/01/2022,A,COORDENACAO REGIONAL DE TAPAJOS,POINT (-55.2463888889 -2.56777777778),Santarém,Pará,30202001927,-2.56777778,-55.24638889
aldeias_pontos.fid-8091ffc_197eb49b98a_3068,3720,Anoirá,1001,1505502,26/03/2019,A,COORDENACAO REGIONAL DO BAIXO TOCANTINS,POINT (-46.535075 -2.62106666667),Paragominas,Pará,30202001906,-2.62106667,-46.535075
aldeias_pontos.fid-8091ffc_197eb49b98a_3069,4663,Anoirá,59401,1506807,07/01/2022,A,COORDENACAO REGIONAL DE TAPAJOS,POINT (-55.2233333333 -2.4),Santarém,Pará,30202001927,-2.4,-55.22333333
aldeias_pontos.fid-8091ffc_197eb49b98a_306a,576,Antônio José/Nova/Pradinho,28301,3106606,,A,COORDENACAO REGIONAL DE MINAS GERAIS E ESPIRITO SANTOS,POINT (-40.5634777778 -16.8777888889),Bertópolis,Minas Gerais,30202002067,-16.87778889,-40.56347778
aldeias_pontos.fid-8091ffc_197eb49b98a_306b,4750,Aopá,26901,5100359,28/03/2022,A,COORDENACAO REGIONAL RIBEIRAO CASCALHEIRA,POINT (-51.5778333333 -11.8107222222),Alto Boa Vista,Mato Grosso,30202002046,-11.81072222,-51.57783333
aldeias_pontos.fid-8091ffc_197eb49b98a_306c,4323,Apalai Bona,33701,1505106,11/06/2021,A,COORDENACAO REGIONAL AMAPÁ E NORTE DO PARÁ,POINT (-54.6585833333 1.21873611111),Óbidos,Pará,30202001899,1.21873611,-54.65858333
aldeias_pontos.fid-8091ffc_197eb49b98a_306d,1267,Apeiti,23001,1507300,21/09/2017,A,COORDENACAO REGIONAL KAYAPÓ SUL DO PARÁ,POINT (-51.7055961626226 -6.997919349780155),São Félix do Xingu,Pará,30202001920,-6.99791935,-51.70559616
aldeias_pontos.fid-8091ffc_197eb49b98a_306e,1198,Apertado,27201,5106307,12/06/2017,A,COORDENACAO REGIONAL XAVANTE,POINT (-54.05 -13.95),Paranatinga,Mato Grosso,30202002053,-13.95,-54.05
aldeias_pontos.fid-8091ffc_197eb49b98a_306f,980,Apiahikt,50901,1300409,14/03/2017,A,COORDENACAO REGIONAL DE RORAIMA,POINT (-63.612409959 1.8173299920001),Barcelos,Amazonas,30202001955,1.81732999,-63.61240996
aldeias_pontos.fid-8091ffc_197eb49b98a_3070,4687,Apiaka,62501,1506807,10/01/2022,A,COORDENACAO REGIONAL DE TAPAJOS,POINT (-54.255 -2.77333333333),Santarém,Pará,30202001927,-2.77333333,-54.255
aldeias_pontos.fid-8091ffc_197eb49b98a_3071,2,Apikay,11101,5003702,,A,COORDENACAO REGIONAL DE DOURADOS,POINT (-55.136388888889 -23.741388888889),Dourados,Mato Grosso do Sul,30202002011,-23.74138889,-55.13638889
aldeias_pontos.fid-8091ffc_197eb49b98a_3072,376,Apiwtxa,20401,1200351,,A,COORDENACAO REGIONAL DO JURUÁ,POINT (-72.9096722222 -9.17308611111),Marechal Thaumaturgo,Acre,30202001852,-9.17308611,-72.90967222
aldeias_pontos.fid-8091ffc_197eb49b98a_3073,4302,Apukaré,73707,3119500,24/05/2021,A,COORDENACAO REGIONAL DE MINAS GERAIS E ESPIRITO SANTOS,POINT (-42.1561111111 -16.6825),Coronel Murta,Minas Gerais,30202002067,-16.6825,-42.15611111
aldeias_pontos.fid-8091ffc_197eb49b98a_3074,656,Apuí,1201,1200344,20/07/2016,A,COORDENACAO REGIONAL ALTO PURUS,POINT (-69.7448722222 -9.11228055556),Manoel Urbano,Acre,30202001845,-9.11228056,-69.74487222
aldeias_pontos.fid-8091ffc_197eb49b98a_3075,698,Apyterewa,3002,1507300,19/08/2016,A,COORDENACAO REGIONAL CENTRO-LESTES DO PARÁ,POINT (-52.6734722222 -5.55730555556),São Félix do Xingu,Pará,30202001913,-5.55730556,-52.67347222
aldeias_pontos.fid-8091ffc_197eb49b98a_3076,1032,Araca,50901,1300409,14/03/2017,A,COORDENACAO REGIONAL DE RORAIMA,POINT (-63.5922555556 1.17190833333),Barcelos,Amazonas,30202001955,1.17190833,-63.59225556
aldeias_pontos.fid-8091ffc_197eb49b98a_3077,1045,Aracaca,50901,1400027,14/03/2017,A,COORDENACAO REGIONAL DE RORAIMA,POINT (-63.676659975 3.7899999680001),Amajari,Roraima,30202001955,3.78999997,-63.67665997
aldeias_pontos.fid-8091ffc_197eb49b98a_3078,1936,Aradyti,3801,1500602,17/05/2018,A,COORDENACAO REGIONAL CENTRO-LESTE DO PARÁ,POINT (-52.6440277778 -4.24027777778),Altamira,Pará,30202001913,-4.24027778,-52.64402778
aldeias_pontos.fid-8091ffc_197eb49b98a_3079,4230,Aradó,3201,1504455,16/07/2020,A,COORDENACAO REGIONAL CENTRO-LESTE DO PARÁ,POINT (-53.2262222222 -3.59175),Medicilândia,Pará,30202001913,-3.59175,-53.22622222
aldeias_pontos.fid-8091ffc_197eb49b98a_307a,336,Arahu,58801,1505502,,A,COORDENACAO REGIONAL DO BAIXO TOCANTINS,POINT (-48.4246666667 -3.26322222222),Paragominas,Pará,30202001906,-3.26322222,-48.42466667
aldeias_pontos.fid-8091ffc_197eb49b98a_307b,948,ArakohwithÃ™u,50901,1400050,14/03/2017,A,COORDENACAO REGIONAL DE RORAIMA,POINT (-63.526314952 2.7596170410001),Alto Alegre,Roraima,30202001955,2.75961704,-63.52631495
aldeias_pontos.fid-8091ffc_197eb49b98a_307c,4666,Arapiranga,59401,1506807,07/01/2022,A,COORDENACAO REGIONAL DE TAPAJOS,POINT (-55.2055555556 -2.515),Santarém,Pará,30202001927,-2.515,-55.20555556
aldeias_pontos.fid-8091ffc_197eb49b98a_307d,280,Araponga,49401,3303807,,A,COORDENACAO REGIONAL AMAPÁ E NORTE DO PARÁ,POINT (-52.434666666667 0.9335),Paraty,Rio de Janeiro,30202001899,0.9335,-52.43466667
aldeias_pontos.fid-8091ffc_197eb49b98a_307e,1023,Arapusi,50901,1303601,14/03/2017,A,COORDENACAO REGIONAL DE RORAIMA,POINT (-64.738528213 1.073074288),Santa Isabel do Rio Negro,Amazonas,30202001955,1.07307429,-64.73852821
aldeias_pontos.fid-8091ffc_197eb49b98a_307f,4266,Arar Zenay,47401,1508001,17/07/2020,A,COORDENACAO REGIONAL DO BAIXO TOCANTINS,POINT (-48.3530277778 -2.26105555556),Tomé-Açu,Pará,30202001906,-2.26105556,-48.35302778
aldeias_pontos.fid-8091ffc_197eb49b98a_3080,5125,Arara,68101,1503002,09/08/2023,A,COORDENACAO REGIONAL DE MANAUS,POINT (-57.4569444444 -1.67083333333),Faro,Pará,30202001871,-1.67083333,-57.45694444
aldeias_pontos.fid-8091ffc_197eb49b98a_3081,4028,Arara dos Francos,64701,2302404,30/04/2020,A,COORDENACAO REGIONAL NORDESTE II,POINT (-39.9131361111 -4.90656388889),Boa Viagem,Ceará,30202001976,-4.90656389,-39.91313611
aldeias_pontos.fid-8091ffc_197eb49b98a_3082,4029,Arara dos Marianos,64701,2302404,30/04/2020,A,COORDENACAO REGIONAL NORDESTE II,POINT (-39.9043138889 -4.90803888889),Boa Viagem,Ceará,30202001976,-4.90803889,-39.90431389
aldeias_pontos.fid-8091ffc_197eb49b98a_3083,1047,Ararai,50901,1400050,14/03/2017,A,COORDENACAO REGIONAL DE RORAIMA,POINT (-63.734000039 2.7200000170001),Alto Alegre,Roraima,30202001955,2.72000002,-63.73400004
aldeias_pontos.fid-8091ffc_197eb49b98a_3084,4207,Ararandewa,58901,1503093,15/07/2020,A,COORDENACAO REGIONAL DO BAIXO TOCANTINS,POINT (-48.8520277778 -3.68313888889),Goianésia do Pará,Pará,30202001906,-3.68313889,-48.85202778
aldeias_pontos.fid-8091ffc_197eb49b98a_3085,133,Araraúna,3301,5101407,,A,COORDENACAO REGIONAL NOROESTE DO MATO GROSSO,POINT (-59.766944444444 -9.8844444444444),Aripuanã,Mato Grosso,30202002032,-9.88444444,-59.76694444
aldeias_pontos.fid-8091ffc_197eb49b98a_3086,3712,Araruna,1001,1505502,26/03/2019,A,COORDENACAO REGIONAL DO BAIXO TOCANTINS,POINT (-46.635 -2.67392777778),Paragominas,Pará,30202001906,-2.67392778,-46.635
aldeias_pontos.fid-8091ffc_197eb49b98a_3087,900,Arasiki,50901,1400050,14/03/2017,A,COORDENACAO REGIONAL DE RORAIMA,POINT (-63.5822888889 2.85031111111),Alto Alegre,Roraima,30202001955,2.85031111,-63.58228889
aldeias_pontos.fid-8091ffc_197eb49b98a_3088,911,Aratha u,50901,1400050,14/03/2017,A,COORDENACAO REGIONAL DE RORAIMA,POINT (-63.779085981 3.158900015),Alto Alegre,Roraima,30202001955,3.15890001,-63.77908598
aldeias_pontos.fid-8091ffc_197eb49b98a_3089,199,Arawaká,33701,1505106,,A,COORDENACAO REGIONAL AMAPÁ E NORTE DO PARÁ,POINT (-54.920025 1.5856416666667),Óbidos,Pará,30202001899,1.58564167,-54.920025
aldeias_pontos.fid-8091ffc_197eb49b98a_308a,177,Arawatá,33701,1505106,,A,COORDENACAO REGIONAL AMAPÁ E NORTE DO PARÁ,POINT (-55.917577777778 2.1541111111111),Óbidos,Pará,30202001899,2.15411111,-55.91757778
aldeias_pontos.fid-8091ffc_197eb49b98a_308b,4128,Arayo,33801,5103700,10/06/2020,A,COORDENACAO REGIONAL DO XINGU,POINT (-53.609872222222 -11.738094444444),Feliz Natal,Mato Grosso,30202002060,-11.73809444,-53.60987222
aldeias_pontos.fid-8091ffc_197eb49b98a_308c,5063,Araçai Karagua,67801,4119509,18/01/2023,A,COORDENACAO REGIONAL LITORAL SUL,POINT (-49.0241916667 -25.4710361111),Piraquara,Paraná,30202002095,-25.47103611,-49.02419167
aldeias_pontos.fid-8091ffc_197eb49b98a_308d,4637,Araçazal,59401,1506807,06/01/2022,A,COORDENACAO REGIONAL DE TAPAJOS,POINT (-55.1536111111 -2.63583333333),Santarém,Pará,30202001927,-2.63583333,-55.15361111
aldeias_pontos.fid-8091ffc_197eb49b98a_308e,5118,Araçá,68101,1505304,01/08/2023,A,COORDENACAO REGIONAL DE MANAUS,POINT (-56.7997811111 -0.591658888889),Oriximiná,Pará,30202001871,-0.59165889,-56.79978111
aldeias_pontos.fid-8091ffc_197eb49b98a_308f,4427,Areal,8003,3200607,05/07/2021,A,COORDENACAO REGIONAL DE MINAS GERAIS E ESPIRITO SANTOS,POINT (-40.2476916667 -19.8552972222),Aracruz,Espírito Santo,30202002067,-19.85529722,-40.24769167
aldeias_pontos.fid-8091ffc_197eb49b98a_3090,40,Areal,73716,1506609,,A,COORDENACAO REGIONAL DO BAIXO TOCANTINS,POINT (-47.6256388889 -1.35958333333),Santa Maria do Pará,Pará,30202001906,-1.35958333,-47.62563889
aldeias_pontos.fid-8091ffc_197eb49b98a_3091,5070,Areal Botocudos,10202,3203205,06/03/2023,A,COORDENACAO REGIONAL DE MINAS GERAIS E ESPIRITO SANTOS,POINT (-39.8305555556 -19.5813888889),Linhares,Espírito Santo,30202002067,-19.58138889,-39.83055556
aldeias_pontos.fid-8091ffc_197eb49b98a_3092,104,Areia Branca,11401,5101902,,A,COORDENACAO REGIONAL NOROESTE DO MATO GROSSO,POINT (-58.3644444444 -11.2147222222),Brasnorte,Mato Grosso,30202002032,-11.21472222,-58.36444444
aldeias_pontos.fid-8091ffc_197eb49b98a_3093,4578,Areial,40401,1303601,06/09/2021,A,COORDENACAO REGIONAL DO RIO NEGRO,POINT (-65.1629083333 -0.479269444444),Santa Isabel do Rio Negro,Amazonas,30202001885,-0.47926944,-65.16290833
aldeias_pontos.fid-8091ffc_197eb49b98a_3094,81,Areião,4201,5101407,,A,COORDENACAO REGIONAL NOROESTE DO MATO GROSSO,POINT (-59.793888888889 -10.759166666667),Aripuanã,Mato Grosso,30202002032,-10.75916667,-59.79388889
aldeias_pontos.fid-8091ffc_197eb49b98a_3095,1027,Ariabu,50901,1303601,14/03/2017,A,COORDENACAO REGIONAL DE RORAIMA,POINT (-66.1081166667 0.629533333333),Santa Isabel do Rio Negro,Amazonas,30202001955,0.62953333,-66.10811667
aldeias_pontos.fid-8091ffc_197eb49b98a_3096,4157,Aribaru,33801,5107354,10/06/2020,A,COORDENACAO REGIONAL DO XINGU,POINT (-53.116313888889 -10.834436111111),São José do Xingu,Mato Grosso,30202002060,-10.83443611,-53.11631389
aldeias_pontos.fid-8091ffc_197eb49b98a_3097,1021,Arikato u,50901,1400050,14/03/2017,A,COORDENACAO REGIONAL DE RORAIMA,POINT (-63.2008638889 3.22546388889),Alto Alegre,Roraima,30202001955,3.22546389,-63.20086389
aldeias_pontos.fid-8091ffc_197eb49b98a_3098,5074,Arimateia,47901,5102686,28/03/2023,A,COORDENACAO REGIONAL DE CUIABA,POINT (-59.2444055556 -14.3612777778),Campos de Júlio,Mato Grosso,30202002025,-14.36127778,-59.24440556
aldeias_pontos.fid-8091ffc_197eb49b98a_3099,1192,Arimateia,27201,5106307,09/06/2017,A,COORDENACAO REGIONAL XAVANTE,POINT (-54.0502777778 -14.085),Paranatinga,Mato Grosso,30202002053,-14.085,-54.05027778
aldeias_pontos.fid-8091ffc_197eb49b98a_309a,944,Arimau,50901,1400050,14/03/2017,A,COORDENACAO REGIONAL DE RORAIMA,POINT (-63.633616682 2.6842167130001),Alto Alegre,Roraima,30202001955,2.68421671,-63.63361668
aldeias_pontos.fid-8091ffc_197eb49b98a_309b,4660,Arimum,59401,1506807,07/01/2022,A,COORDENACAO REGIONAL DE TAPAJOS,POINT (-55.1891666667 -2.34388888889),Santarém,Pará,30202001927,-2.34388889,-55.18916667
aldeias_pontos.fid-8091ffc_197eb49b98a_309c,4909,Aroeira,10401,2300200,16/05/2022,A,COORDENACAO REGIONAL NORDESTE II,POINT (-40.0167722222 -3.02113888889),Acaraú,Ceará,30202001976,-3.02113889,-40.01677222
aldeias_pontos.fid-8091ffc_197eb49b98a_309d,4392,Aroeira,72201,2927705,21/06/2021,A,COORDENACAO REGIONAL DO SUL DA BAHIA,POINT (-39.0732555556 -16.3329277778),Santa Cruz Cabrália,Bahia,30202001990,-16.33292778,-39.07325556
aldeias_pontos.fid-8091ffc_197eb49b98a_309e,677,Arombi,3201,1500602,19/08/2016,A,COORDENACAO REGIONAL CENTRO-LESTE DO PARÁ,POINT (-52.8647222222 -3.82),Altamira,Pará,30202001913,-3.82,-52.86472222
aldeias_pontos.fid-8091ffc_197eb49b98a_309f,4264,Arumateua,44601,1508001,17/07/2020,A,COORDENACAO REGIONAL DO BAIXO TOCANTINS,POINT (-48.1916666667 -2.50522222222),Tomé-Açu,Pará,30202001906,-2.50522222,-48.19166667
aldeias_pontos.fid-8091ffc_197eb49b98a_30a0,4597,Arurá,28601,1303809,06/09/2021,A,COORDENACAO REGIONAL DO RIO NEGRO,POINT (-66.33675 -0.356891666667),São Gabriel da Cachoeira,Amazonas,30202001885,-0.35689167,-66.33675
aldeias_pontos.fid-8091ffc_197eb49b98a_30a1,4588,Aruti,28601,1303809,06/09/2021,A,COORDENACAO REGIONAL DO RIO NEGRO,POINT (-66.0154944444 -0.308741666667),São Gabriel da Cachoeira,Amazonas,30202001885,-0.30874167,-66.01549444
aldeias_pontos.fid-8091ffc_197eb49b98a_30a2,232,Aruwaity,49401,1600154,,A,COORDENACAO REGIONAL AMAPÁ E NORTE DO PARÁ,POINT (-52.867194444444 1.1682444444444),Pedra Branca do Amapari,Amapá,30202001899,1.16824444,-52.86719444
aldeias_pontos.fid-8091ffc_197eb49b98a_30a3,62,Asa Branca,17301,5101902,,A,COORDENACAO REGIONAL NOROESTE DO MATO GROSSO,POINT (-58.0175 -12.8175),Brasnorte,Mato Grosso,30202002032,-12.8175,-58.0175
aldeias_pontos.fid-8091ffc_197eb49b98a_30a4,4096,Assahutu,33801,5103858,10/06/2020,A,COORDENACAO REGIONAL DO XINGU,POINT (-53.071869444444 -12.588755555556),Gaúcha do Norte,Mato Grosso,30202002060,-12.58875556,-53.07186944
aldeias_pontos.fid-8091ffc_197eb49b98a_30a5,5169,Assentamento Flores,64601,2211209,29/08/2023,A,COORDENACAO REGIONAL NORDESTE II,POINT (-44.5885416667 -7.6077),Uruçuí,Piauí,30202001976,-7.6077,-44.58854167
aldeias_pontos.fid-8091ffc_197eb49b98a_30a6,5158,Assentamento Rio Preto,64601,2201903,29/08/2023,A,COORDENACAO REGIONAL NORDESTE II,POINT (-45.1318861111 -9.07138611111),Bom Jesus,Piauí,30202001976,-9.07138611,-45.13188611
aldeias_pontos.fid-8091ffc_197eb49b98a_30a7,5168,Assentamento Santa Teresa,64601,2211209,29/08/2023,A,COORDENACAO REGIONAL NORDESTE II,POINT (-44.40155 -7.31589166667),Uruçuí,Piauí,30202001976,-7.31589167,-44.40155
aldeias_pontos.fid-8091ffc_197eb49b98a_30a8,4062,Assentamento Santa Terezinha,73726,2405801,05/05/2020,A,COORDENACAO REGIONAL NORDESTE II,POINT (-35.9019444444 -5.52449722222),João Câmara,Rio Grande do Norte,30202001976,-5.52449722,-35.90194444
aldeias_pontos.fid-8091ffc_197eb49b98a_30a9,3352,Astro Luminoso,22601,1200328,18/09/2018,A,COORDENACAO REGIONAL DO JURUÁ,POINT (-72.045279 -9.27684172222),Jordão,Acre,30202001852,-9.27684172,-72.045279
aldeias_pontos.fid-8091ffc_197eb49b98a_30aa,3757,Atamuya (Tamoia),43001,1101203,29/03/2019,A,COORDENACAO REGIONAL DE CACOAL,POINT (-61.3627222222 -11.1131388889),Ministro Andreazza,Rondônia,30202001934,-11.11313889,-61.36272222
aldeias_pontos.fid-8091ffc_197eb49b98a_30ab,4443,Atoran,23401,3154309,21/07/2021,A,COORDENACAO REGIONAL DE MINAS GERAIS E ESPIRITO SANTOS,POINT (-41.2935944444 -19.2303194444),Resplendor,Minas Gerais,30202002067,-19.23031944,-41.29359444
aldeias_pontos.fid-8091ffc_197eb49b98a_30ac,4116,Aturwa,33801,5103858,10/06/2020,A,COORDENACAO REGIONAL DO XINGU,POINT (-53.681930555556 -12.999322222222),Gaúcha do Norte,Mato Grosso,30202002060,-12.99932222,-53.68193056
aldeias_pontos.fid-8091ffc_197eb49b98a_30ad,921,Auaris,50901,1400027,14/03/2017,A,COORDENACAO REGIONAL DE RORAIMA,POINT (-64.49171671 4.003983303),Amajari,Roraima,30202001955,4.0039833,-64.49171671
aldeias_pontos.fid-8091ffc_197eb49b98a_30ae,4769,Aurí,3201,1504455,28/03/2022,A,COORDENACAO REGIONAL CENTRO-LESTE DO PARÁ,POINT (-52.7125194444 -3.59828055556),Medicilândia,Pará,30202001913,-3.59828056,-52.71251944
aldeias_pontos.fid-8091ffc_197eb49b98a_30af,963,Auwi u,50901,1400050,14/03/2017,A,COORDENACAO REGIONAL DE RORAIMA,POINT (-63.346944454 2.923333311),Alto Alegre,Roraima,30202001955,2.92333331,-63.34694445
